     2.10           OBSERVATION DATA    M (MIXED)           RINEX VERSION / TYPE
GPP.DLL V3.06                           17 - JUN - 21 17:56 PGM / RUN BY / DATE 
AMCO                                                        MARKER NAME         
AMCO                                                        MARKER NUMBER       
                                                            OBSERVER / AGENCY   
4723K06228          TRIMBLE NETR5       3.84                REC # / TYPE / VERS 
31053960            TRM55971.00     NONE                    ANT # / TYPE        
  2652254.9440 -5775435.4015  -538087.1637                  APPROX POSITION XYZ 
        0.0080       -0.0000       -0.0000                  ANTENNA: DELTA H/E/N
     1     1                                                WAVELENGTH FACT L1/2
     7    L1    L2    C1    P2    S1    S2    P1            # / TYPES OF OBSERV 
    15.000                                                  INTERVAL            
  2020     7     1    12     0    0.0000000     GPS         TIME OF FIRST OBS   
  2020     7     1    14     0    0.0000000     GPS         TIME OF LAST OBS    
    18                                                      LEAP SECONDS        
    54                                                      # OF SATELLITES     
   G01  1437  1437  1437  1437  1437  1437     0            PRN / # OF OBS      
   G02  2505  2450  2505  2450  2505  2450     0            PRN / # OF OBS      
   G03  2350  2349  2350  2349  2350  2349     0            PRN / # OF OBS      
   G04  2191  2191  2191  2191  2191  2191     0            PRN / # OF OBS      
   G05  2374  2371  2374  2343  2374  2371     0            PRN / # OF OBS      
   G06  2446  2446  2446  2446  2446  2446     0            PRN / # OF OBS      
   G07  1664  1662  1664  1640  1664  1662     0            PRN / # OF OBS      
   G08  1431  1430  1431  1430  1431  1430     0            PRN / # OF OBS      
   G09  2312  2312  2312  2312  2312  2312     0            PRN / # OF OBS      
   G10  1571  1571  1571  1571  1571  1571     0            PRN / # OF OBS      
   G11  1522  1459  1522  1459  1522  1459     0            PRN / # OF OBS      
   G12  2372  2368  2372  2337  2372  2368     0            PRN / # OF OBS      
   G13  1467  1416  1467  1416  1467  1416     0            PRN / # OF OBS      
   G14  1851  1560  1851  1560  1851  1560     0            PRN / # OF OBS      
   G15  1788  1773  1788  1722  1788  1773     0            PRN / # OF OBS      
   G16  2342  1962  2342  1962  2342  1962     0            PRN / # OF OBS      
   G17  2456  2451  2456  2425  2456  2451     0            PRN / # OF OBS      
   G18  1709  1708  1709  1708  1709  1708     0            PRN / # OF OBS      
   G19  2052  1751  2052  1751  2052  1751     0            PRN / # OF OBS      
   G20  1557  1485  1557  1485  1557  1485     0            PRN / # OF OBS      
   G21  2291  2194  2291  2194  2291  2194     0            PRN / # OF OBS      
   G22  2327  2274  2327  2274  2327  2274     0            PRN / # OF OBS      
   G24  1473  1473  1473  1473  1473  1473     0            PRN / # OF OBS      
   G25  2245  2245  2245  2245  2245  2245     0            PRN / # OF OBS      
   G26  1515  1512  1515  1512  1515  1512     0            PRN / # OF OBS      
   G27  1413  1413  1413  1413  1413  1413     0            PRN / # OF OBS      
   G28  1523  1461  1523  1461  1523  1461     0            PRN / # OF OBS      
   G29  2326  2325  2326  2300  2326  2325     0            PRN / # OF OBS      
   G30  2157  2155  2157  2155  2157  2155     0            PRN / # OF OBS      
   G31  2459  2459  2459  2419  2459  2459     0            PRN / # OF OBS      
   G32  2370  2365  2370  2365  2370  2365     0            PRN / # OF OBS      
   R01  2501  2488  2501  2488  2501  2488  2496            PRN / # OF OBS      
   R02  1887  1880  1887  1880  1887  1880  1884            PRN / # OF OBS      
   R03  1223  1222  1223  1222  1223  1222  1222            PRN / # OF OBS      
   R04  1315  1312  1315  1312  1315  1312  1313            PRN / # OF OBS      
   R05  2144  2144  2144  2144  2144  2144  2144            PRN / # OF OBS      
   R06  1698     0  1698     0  1698     0  1696            PRN / # OF OBS      
   R07  1243  1243  1243  1243  1243  1243  1243            PRN / # OF OBS      
   R08  1650  1650  1650  1650  1650  1650  1648            PRN / # OF OBS      
   R09  1280  1279  1280  1279  1280  1279  1279            PRN / # OF OBS      
   R10  1714     0  1714     0  1714     0  1711            PRN / # OF OBS      
   R11  2588  2588  2588  2588  2588  2588  2587            PRN / # OF OBS      
   R12  2419  2410  2419  2410  2419  2410  2417            PRN / # OF OBS      
   R13   928   927   928   927   928   927   927            PRN / # OF OBS      
   R14  1888  1848  1888  1848  1888  1848  1884            PRN / # OF OBS      
   R15  2238  2186  2238  2186  2238  2186  2236            PRN / # OF OBS      
   R16  1158  1154  1158  1154  1158  1154  1158            PRN / # OF OBS      
   R17  1987  1983  1987  1983  1987  1983  1980            PRN / # OF OBS      
   R18  1240  1240  1240  1240  1240  1240  1240            PRN / # OF OBS      
   R19   889   889   889   889   889   889   887            PRN / # OF OBS      
   R20   983   983   983   983   983   983   978            PRN / # OF OBS      
   R21  2044  2041  2044  2041  2044  2041  2042            PRN / # OF OBS      
   R23  2049  1984  2049  1984  2049  1984  2045            PRN / # OF OBS      
   R24  2480  2478  2480  2478  2480  2478  2480            PRN / # OF OBS      
                                                            END OF HEADER       
 20  7  1 12  0  0.0000000  0 19G 1G22G 9G 8G16G 7G 3G31G 4R 6R18R 5
                                R20R 4G11R15R19R16R14
 107735506.138 7  83949802.058 8  20501409.688    20501402.438          48.000
        55.000  
 119492927.655 6  93111251.70444  22738733.742    22738721.684          43.000
        31.000  
 117455871.014 6  91524108.916 7  22351134.734    22351126.957          45.000
        50.000  
 119597983.122 6  93193252.420 7  22758755.906    22758748.363          43.000
        50.000  
 131535493.655 4 102495292.2904   25030406.336    25030398.555          35.000
        13.000  
 129943049.032 6 101254308.229 5  24727347.320    24727337.664          42.000
        38.000  
 121676210.198 6  94812494.382 7  23154189.336    23154181.617          43.000
        50.000  
 130547866.697 5 101725613.619 6  24842447.633    24842438.914          40.000
        41.000  
 110478565.499 6  86087159.949 8  21023372.438    21023363.840          44.000
        55.000  
 125171519.07114                  23457087.164                          32.000
                  23457086.250
 116083965.568 6  90287486.980 6  21746434.305    21746426.898          43.000
        43.000    21746433.980
 119032045.064 6  92580422.582 6  22267404.617    22267396.973          43.000
        43.000    22267403.820
 114970129.564 5  89421176.782 6  21499991.445    21499984.977          36.000
        44.000    21499990.297
 127444746.778 4  99123648.316 3  23799408.539    23799400.543          31.000
        29.000    23799406.805
 108289078.485 6  84381090.48945  20606736.539    20606725.652          43.000
        38.000  
 116389660.027 6  90525160.408 6  21780717.539    21780709.426          45.000
        42.000    21780717.332
 103169389.163 5  80242823.964 7  19286432.680    19286424.098          36.000
        46.000    19286431.063
 122578393.948 5  95338713.106 5  22946926.953    22946918.254          37.000
        36.000    22946925.805
 124902996.697 6  97146724.345 5  23431484.641    23431473.945          41.000
        36.000    23431483.375
 20  7  1 12  0 15.0000000  0 18G 1G22G 9G 8G16G 7G 3G31G 4R 6R18R 5
                                R20G11R15R19R16R14
 107712305.909 7  83931723.961 8  20496994.914    20496987.723          49.000
        55.000  
 119486181.908 6  93105995.25644  22737449.883    22737437.941          44.000
        31.000  
 117442221.256 6  91513472.731 7  22348537.039    22348529.672          45.000
        50.000  
 119640324.039 6  93226245.331 7  22766812.383    22766805.426          43.000
        50.000  
 131535905.020 5 102495612.72641  25030486.336    25030477.090          37.000
        16.000  
 129889626.165 6 101212680.046 5  24717181.414    24717171.582          42.000
        38.000  
 121667464.711 6  94805679.693 7  23152524.047    23152517.441          42.000
        50.000  
 130584960.491 5 101754517.856 6  24849506.539    24849497.527          40.000
        41.000  
 110491548.481 6  86097276.525 8  21025843.664    21025834.598          45.000
        55.000  
 125171627.057 4                  23457108.742                          33.000
                  23457107.008
 116143079.156 6  90333464.162 6  21757510.219    21757501.988          43.000
        43.000    21757509.188
 119053664.649 6  92597237.826 6  22271448.305    22271440.898          43.000
        43.000    22271447.859
 114921399.894 5  89383275.929 6  21490878.773    21490872.891          36.000
        45.000    21490878.094
 108303268.039 6  84392147.28345  20609436.289    20609425.520          43.000
        39.000  
 116365834.058 6  90506629.099 6  21776258.477    21776250.129          45.000
        43.000    21776258.270
 103184524.000 5  80254595.489 7  19289261.500    19289253.387          36.000
        46.000    19289260.703
 122535504.083 5  95305354.302 5  22938898.172    22938888.301          37.000
        36.000    22938896.320
 124913521.844 6  97154910.576 4  23433457.797    23433447.691          41.000
        35.000    23433458.059
 20  7  1 12  0 30.0000000  0 18G 1G22G 9G 8G16G 7G 3G31G 4R18R 5R20
                                G17G11R15R19R16R14
 107689215.856 7  83913731.719 8  20492601.081    20492593.240          48.000
        55.000  
 119479419.027 6  93100725.50143  22736162.917    22736150.785          44.000
        30.000  
 117428666.718 6  91502910.757 7  22345958.071    22345950.354          45.000
        50.000  
 119682663.299 6  93259236.924 7  22774870.154    22774862.852          43.000
        50.000  
 131536271.998 5 102495898.65841  25030554.945    25030547.281          37.000
        16.000  
 129836177.678 6 101171031.889 5  24707010.540    24707000.542          42.000
        38.000  
 121658674.272 6  94798830.030 7  23150852.031    23150845.652          43.000
        50.000  
 130622121.920 6 101783474.807 5  24856578.155    24856568.547          41.000
        40.000  
 110504617.760 7  86107460.370 8  21028330.914    21028322.023          47.000
        55.000  
 116202261.224 6  90379494.651 6  21768597.344    21768588.293          43.000
        42.000    21768596.898
 119075254.701 6  92614030.060 6  22275485.781    22275479.430          41.000
        43.000    22275485.219
 114872794.021 4  89345471.349 6  21481789.742    21481783.508          35.000
        45.000    21481788.594
 128467942.564 4 100104887.144 5  24446646.383    24446637.551          34.000
        40.000  
 108317573.022 6  84403294.01145  20612158.274    20612147.915          45.000
        39.000  
 116342075.100 6  90488149.907 6  21771813.078    21771804.379          45.000
        44.000    21771811.813
 103199852.268 5  80266517.510 7  19292127.453    19292118.051          36.000
        46.000    19292125.484
 122492568.653 5  95271960.077 5  22930859.750    22930849.879          38.000
        36.000    22930859.660
 124924167.836 6  97163190.747 5  23435455.500    23435447.504          41.000
        36.000    23435455.879
 20  7  1 12  0 45.0000000  0 18G 1G22G 9G 8G16G 7G 3G31G 4R18R 5R20
                                G17G11R15R19R16R14
 107666244.317 7  83895831.827 8  20488229.792    20488222.478          48.000
        55.000  
 119472647.287 6  93095448.79444  22734874.956    22734862.413          44.000
        31.000  
 117415215.439 6  91492429.233 7  22343398.189    22343390.528          44.000
        50.000  
 119725008.314 6  93292233.040 7  22782926.709    22782920.520          43.000
        50.000  
 131536602.846 5 102496156.40341  25030618.055    25030609.570          37.000
        16.000  
 129782711.926 6 101129370.279 5  24696836.236    24696826.648          41.000
        38.000  
 121649846.973 6  94791951.597 7  23149172.390    23149165.307          42.000
        50.000  
 130659358.759 6 101812490.507 5  24863664.124    24863654.282          41.000
        39.000  
 110517781.188 7  86117717.576 8  21030835.753    21030826.388          48.000
        55.000  
 116261519.450 6  90425584.379 6  21779699.289    21779690.004          43.000
        42.000    21779697.672
 119096823.122 6  92630805.488 6  22279521.250    22279513.844          42.000
        42.000    22279520.805
 114824320.558 5  89307769.777 6  21472724.539    21472719.477          36.000
        45.000    21472723.625
 128438861.969 4 100082226.969 5  24441110.266    24441102.020          33.000
        40.000  
 108332001.429 6  84414536.92345  20614903.853    20614893.786          45.000
        39.000  
 116318391.900 7  90469729.636 6  21767381.242    21767372.426          46.000
        43.000    21767380.918
 103215382.064 5  80278596.223 7  19295030.375    19295021.559          36.000
        46.000    19295028.758
 122449596.087 5  95238536.999 5  22922815.922    22922805.465          38.000
        36.000    22922814.656
 124934943.018 5  97171571.445 5  23437475.398    23437467.520          39.000
        36.000    23437474.836
 20  7  1 12  0 60.0000000  0 18G 1G22G 9G 8G16G 7G 3G31G 4R18R 5R20
                                G17G11R15R19R16R14
 107643388.514 7  83878022.113 8  20483880.362    20483872.638          49.000
        55.000  
 119465863.496 6  93090162.72244  22733583.221    22733571.675          43.000
        31.000  
 117401864.210 6  91482025.673 7  22340857.751    22340850.618          45.000
        50.000  
 119767355.555 6  93325230.867 7  22790985.256    22790979.301          42.000
        50.000  
 131536894.647 5 102496383.81041  25030673.719    25030664.766          38.000
        17.000  
 129729226.152 6 101087693.077 5  24686658.072    24686648.249          41.000
        38.000  
 121640979.735 6  94785042.059 7  23147483.851    23147477.706          41.000
        50.000  
 130696667.738 5 101841562.406 5  24870762.889    24870753.692          40.000
        39.000  
 110531035.261 7  86128045.432 8  21033358.503    21033348.200          47.000
        55.000  
 116320850.198 6  90471730.522 6  21790812.477    21790802.957          43.000
        41.000    21790811.680
 119118366.579 6  92647561.452 6  22283552.289    22283545.703          41.000
        43.000    22283551.492
 114775976.683 5  89270168.984 6  21463684.305    21463677.016          36.000
        45.000    21463682.688
 128409884.557 4 100059647.146 5  24435596.828    24435588.582          33.000
        40.000  
 108346550.070 7  84425873.52145  20617672.173    20617662.048          46.000
        38.000  
 116294781.493 6  90451366.016 6  21762961.688    21762954.750          45.000
        43.000    21762962.301
 103231109.914 5  80290828.994 7  19297970.250    19297962.254          37.000
        46.000    19297969.805
 122406583.642 5  95205082.823 5  22914764.141    22914753.328          38.000
        36.000    22914763.578
 124945844.292 5  97180050.219 5  23439521.297    23439513.891          40.000
        37.000    23439520.148
 20  7  1 12  1 15.0000000  0 18G 1G22G 9G 8G16G 7G 3G31G 4R18R 5R20
                                G17G11R15R19R16R14
 107620646.593 7  83860301.134 8  20479552.745    20479545.373          48.000
        55.000  
 119459065.759 6  93084865.77544  22732291.057    22732278.222          45.000
        32.000  
 117388610.719 6  91471698.275 7  22338335.696    22338327.743          45.000
        50.000  
 119809702.601 6  93358228.546 7  22799044.444    22799037.727          42.000
        50.000  
 131537145.652 5 102496579.36941  25030721.828    25030712.875          37.000
        18.000  
 129675718.379 5 101045998.733 5  24676475.345    24676466.050          40.000
        38.000  
 121632070.458 5  94778099.757 7  23145787.719    23145782.042          40.000
        50.000  
 130734046.557 5 101870688.756 5  24877876.499    24877866.598          40.000
        38.000  
 110544377.600 7  86138442.056 8  21035896.542    21035887.646          46.000
        55.000  
 116380250.726 6  90517930.900 6  21801940.781    21801931.262          44.000
        42.000    21801939.984
 119139882.440 5  92664296.016 6  22287576.664    22287569.258          40.000
        43.000    22287575.516
 114727760.913 5  89232667.815 6  21454667.711    21454660.539          36.000
        45.000    21454665.273
 128381008.189 4 100037146.073 5  24430102.797    24430093.555          34.000
        40.000  
 108361216.514 7  84437301.90845  20620464.235    20620452.880          46.000
        39.000  
 116271242.355 7  90433057.800 6  21758557.383    21758549.035          46.000
        43.000    21758556.938
 103247033.260 5  80303213.782 7  19300947.727    19300938.559          36.000
        46.000    19300945.641
 122363529.064 5  95171595.984 5  22906704.031    22906694.277          38.000
        37.000    22906703.117
 124956869.667 5  97188625.487 5  23441587.250    23441582.305          37.000
        38.000    23441587.629
 20  7  1 12  1 30.0000000  0 19G 1G22G 9G 8G16G 7G 3G31G 4R18R 5R20
                                R 4G17G11R15R19R16R14
 107598019.634 7  83842669.736 8  20475246.762    20475239.974          49.000
        55.000  
 119452254.971 6  93079558.66944  22730993.659    22730982.171          44.000
        31.000  
 117375455.641 6  91461447.552 7  22335832.501    22335824.489          45.000
        50.000  
 119852050.015 6  93391226.501 7  22807102.490    22807095.950          42.000
        50.000  
 131537356.365 5 102496743.57741  25030760.852    25030752.484          37.000
        16.000  
 129622189.686 6 101004288.081 5  24666289.986    24666279.812          42.000
        38.000  
 121623119.905 6  94771125.309 7  23144085.398    23144079.077          41.000
        50.000  
 130771495.858 6 101899870.015 5  24885002.702    24884992.626          42.000
        38.000  
 110557808.626 7  86148907.774 8  21038452.625    21038443.852          46.000
        55.000  
 116439720.999 6  90564185.557 6  21813082.633    21813072.293          44.000
        42.000    21813081.133
 119161371.018 6  92681009.413 6  22291597.398    22291589.520          42.000
        42.000    22291597.777
 114679674.343 5  89195267.160 6  21445674.289    21445667.820          37.000
        45.000    21445674.316
 127597267.276 4  99242267.09814  23827884.516    23827878.984          34.000
        32.000    23827883.602
 128352233.270 4 100014724.064 5  24424626.813    24424616.516          32.000
        40.000  
 108376001.496 6  84448822.67745  20623277.282    20623266.747          44.000
        38.000  
 116247775.692 7  90414805.917 6  21754165.586    21754158.063          46.000
        44.000    21754165.613
 103263152.799 5  80315751.198 7  19303959.961    19303951.730          36.000
        46.000    19303958.695
 122320433.796 5  95138077.426 5  22898635.453    22898628.516          36.000
        38.000    22898635.832
 124968019.932 5  97197297.946 5  23443680.820    23443675.055          39.000
        39.000    23443680.141
 20  7  1 12  1 45.0000000  0 19G 1G22G 9G 8G16G 7G 3G31G 4R18R 5R20
                                R 4G17G11R15R19R16R14
 107575508.755 7  83825128.789 8  20470963.417    20470955.869          49.000
        55.000  
 119445432.187 6  93074242.21344  22729695.839    22729683.765          43.000
        31.000  
 117362399.742 6  91451274.108 7  22333347.767    22333339.286          45.000
        50.000  
 119894398.209 6  93424225.069 7  22815161.217    22815155.086          42.000
        50.000  
 131537527.901 5 102496877.20141  25030793.117    25030785.395          36.000
        16.000  
 129568641.110 5 100962561.939 5  24656099.150    24656089.621          40.000
        37.000  
 121614128.990 6  94764119.395 7  23142374.515    23142367.842          41.000
        50.000  
 130809015.943 6 101929106.407 5  24892142.663    24892132.586          41.000
        38.000  
 110571328.915 7  86159443.058 8  21041025.297    21041016.465          47.000
        55.000  
 116499261.583 6  90610494.885 6  21824235.977    21824226.926          45.000
        42.000    21824235.531
 119182832.984 6  92697702.006 6  22295612.164    22295604.520          42.000
        41.000    22295611.840
 114631718.180 5  89157967.923 6  21436704.711    21436699.766          36.000
        45.000    21436704.621
 127622408.837 4  99261821.676 4  23832579.211    23832572.156          33.000
        32.000    23832578.887
 128323561.255 4  99992382.188 5  24419170.078    24419160.367          31.000
        40.000  
 108390905.536 7  84460436.21645  20626113.321    20626102.142          47.000
        38.000  
 116224382.734 7  90396611.412 6  21749788.313    21749780.434          46.000
        44.000    21749788.340
 103279468.733 5  80328441.386 7  19307011.523    19307002.355          36.000
        46.000    19307009.789
 122277299.070 5  95104528.233 5  22890560.703    22890553.414          36.000
        38.000    22890560.496
 124979296.160 5  97206068.345 5  23445793.250    23445789.246          37.000
        38.000    23445793.160
 20  7  1 12  1 60.0000000  0 19G 1G22G 9G 8G16G 7G 3G31G 4R18R 5R20
                                R 4G17G11R15R19R16R14
 107553116.710 7  83807680.439 8  20466702.207    20466695.361          49.000
        55.000  
 119438599.951 6  93068918.38544  22728395.706    22728383.691          45.000
        32.000  
 117349445.315 7  91441179.734 7  22330883.126    22330875.231          46.000
        50.000  
 119936749.218 6  93457225.842 7  22823221.178    22823214.344          43.000
        50.000  
 131537662.974 5 102496982.48641  25030820.000    25030811.164          36.000
        16.000  
 129515075.362 6 100920822.414 5  24645905.970    24645896.031          41.000
        36.000  
 121605100.206 6  94757083.976 7  23140656.890    23140649.690          42.000
        50.000  
 130846609.077 6 101958399.717 5  24899296.500    24899286.668          41.000
        38.000  
 110584940.596 6  86170049.546 8  21043615.656    21043606.824          45.000
        55.000  
 116558874.085 6  90656860.166 6  21835403.211    21835394.746          44.000
        43.000    21835402.180
 119204270.504 6  92714375.626 6  22299622.938    22299615.059          42.000
        42.000    22299622.375
 114583895.373 5  89120772.404 7  21427764.258    21427757.438          37.000
        46.000    21427762.992
 127647475.183 4  99281317.705 4  23837260.852    23837254.734          32.000
        34.000    23837261.230
 128294994.67913  99970122.43215  24413731.297    24413723.461          27.000
        40.000  
 108405930.989 6  84472144.37045  20628973.165    20628961.692          44.000
        38.000  
 116201066.443 6  90378476.502 6  21745424.641    21745416.645          44.000
        43.000    21745424.195
 103295983.719 4  80341286.360 7  19310098.734    19310089.918          35.000
        46.000    19310096.648
 122234127.709 4  95070950.503 5  22882480.484    22882470.965          35.000
        37.000    22882479.453
 124990700.762 5  97214938.614 5  23447936.406    23447926.887          40.000
        37.000    23447936.082
 20  7  1 12  2 15.0000000  0 19G 1G22G 9G 8G16G 7G 3G31G 4R18R 5R20
                                R 4G17G11R15R19R16R14
 107530835.564 7  83790318.505 8  20462461.926    20462455.197          49.000
        55.000  
 119431750.085 6  93063580.82244  22727092.425    22727080.175          44.000
        31.000  
 117336584.076 6  91431157.967 7  22328435.899    22328427.419          45.000
        50.000  
 119979094.377 6  93490222.068 7  22831278.522    22831271.453          42.000
        50.000  
 131537753.489 5 102497052.9974   25030837.953    25030828.414          37.000
        14.000  
 129461484.530 6 100879063.329 5  24635708.603    24635697.902          41.000
        37.000  
 121596025.349 6  94750012.644 7  23138929.898    23138923.987          42.000
        50.000  
 130884266.751 6 101987743.346 5  24906462.844    24906453.188          42.000
        39.000  
 110598635.149 6  86180720.607 8  21046221.641    21046212.457          44.000
        55.000  
 116618549.811 7  90703274.613 6  21846582.211    21846574.566          46.000
        44.000    21846581.648
 119225674.771 6  92731023.358 6  22303624.375    22303619.547          41.000
        42.000    22303624.402
 114536198.166 5  89083674.587 7  21418843.266    21418839.145          37.000
        46.000    21418843.176
 127672457.573 4  99300748.553 4  23841925.313    23841918.141          33.000
        34.000    23841926.043
 128266525.319 4  99947938.466 5  24408317.047    24408307.160          31.000
        40.000  
 108421069.473 6  84483940.59345  20631853.415    20631842.528          44.000
        38.000  
 116177818.969 6  90360395.139 6  21741073.391    21741066.688          44.000
        44.000    21741073.535
 103312688.894 5  80354279.266 7  19313220.023    19313211.910          36.000
        46.000    19313219.227
 122190911.765 4  95037338.112 5  22874388.430    22874380.551          35.000
        37.000    22874388.809
 125002225.653 5  97223902.372 4  23450099.258    23450087.859          38.000
        35.000    23450098.578
 20  7  1 12  2 30.0000000  0 19G 1G22G 9G 8G16G 7G 3G31G 4R18R 5R20
                                R 4G17G11R15R19R16R14
 107508673.170 7  83773049.109 8  20458245.012    20458237.638          49.000
        55.000  
 119424890.309 6  93058235.51144  22725786.620    22725774.429          44.000
        31.000  
 117323823.425 6  91421214.592 7  22326007.173    22325999.278          45.000
        50.000  
 120021440.859 6  93523219.297 7  22839336.865    22839329.973          43.000
        50.000  
 131537807.218 4 102497094.78141  25030846.867    25030838.500          35.000
        17.000  
 129407876.453 6 100837290.829 5  24625506.759    24625496.996          41.000
        36.000  
 121586911.993 6  94742911.334 7  23137195.508    23137188.366          42.000
        50.000  
 130921996.393 6 102017143.049 5  24913642.266    24913633.137          41.000
        38.000  
 110612419.849 6  86191461.920 8  21048844.711    21048835.879          44.000
        55.000  
 116678295.853 6  90749743.755 6  21857774.461    21857766.348          44.000
        44.000    21857774.137
 119247053.086 6  92747650.953 6  22307624.391    22307618.156          43.000
        41.000    22307624.418
 114488634.686 5  89046680.755 7  21409948.586    21409944.699          37.000
        46.000    21409948.379
 127697364.020 4  99320120.201 5  23846578.055    23846570.648          35.000
        36.000    23846576.789
 128238160.889 4  99925836.298 6  24402920.063    24402910.410          33.000
        45.000  
 108436328.421 6  84495830.67345  20634756.696    20634746.221          45.000
        38.000  
 116154648.482 7  90342373.652 6  21736738.141    21736731.555          46.000
        44.000    21736737.816
 103329591.819 4  80367426.010 7  19316381.266    19316372.215          35.000
        46.000    19316379.297
 122147659.100 4  95003697.160 5  22866291.094    22866284.273          35.000
        37.000    22866291.121
 125013878.497 5  97232965.674 4  23452284.750    23452272.414          38.000
        34.000    23452284.426
 20  7  1 12  2 45.0000000  0 20G 1G22G 9G 8G16G 7G 3G31G 4R 6R18R 5
                                R20R 4G17G11R15R19R16R14
 107486628.185 7  83755871.189 8  20454049.730    20454042.943          49.000
        55.000  
 119418019.199 6  93052881.38243  22724479.581    22724467.097          45.000
        30.000  
 117311161.585 6  91411348.243 7  22323597.759    22323589.103          45.000
        50.000  
 120063786.788 6  93556216.096 7  22847395.904    22847388.250          43.000
        50.000  
 131537822.676 5 102497106.82041  25030848.891    25030841.227          36.000
        16.000  
 129354249.775 6 100795503.817 5  24615302.368    24615292.136          41.000
        37.000  
 121577758.567 6  94735778.767 7  23135454.187    23135446.870          42.000
        50.000  
 130959796.187 5 102046597.438 5  24920835.633    24920826.035          39.000
        37.000  
 110626292.656 6  86202271.895 8  21051484.563    21051475.848          44.000
        55.000  
 125175275.05514                  23457791.680                          31.000
                  23457791.707
 116738109.910 6  90796265.753 6  21868980.391    21868971.105          45.000
        43.000    21868979.594
 119268403.572 6  92764256.884 5  22311619.398    22311610.582          44.000
        39.000    22311619.191
 114441203.533 5  89009789.889 7  21401079.328    21401073.797          37.000
        46.000    21401078.766
 127722192.388 4  99339431.179 4  23851214.102    23851204.699          35.000
        34.000    23851213.422
 128209899.625 4  99903814.548 5  24397540.242    24397532.055          31.000
        40.000  
 108451705.948 6  84507813.15945  20637683.103    20637672.744          44.000
        39.000  
 116131553.531 6  90324410.921 6  21732416.109    21732409.172          45.000
        44.000    21732416.020
 103346690.384 5  80380724.864 7  19319576.961    19319567.793          36.000
        46.000    19319575.344
 122104368.574 4  94970026.750 5  22858189.313    22858178.031          34.000
        36.000    22858187.461
 125025657.712 5  97242127.301 5  23454496.016    23454483.445          40.000
        36.000    23454494.750
 20  7  1 12  2 60.0000000  0 20G 1G22G 9G 8G16G 7G 3G31G 4R 6R18R 5
                                R20R 4G17G11R15R19R16R14
 107464700.329 7  83738784.547 8  20449877.449    20449869.783          49.000
        55.000  
 119411136.299 6  93047518.06844  22723169.464    22723157.624          45.000
        32.000  
 117298597.876 6  91401558.304 7  22321206.907    22321198.427          45.000
        50.000  
 120106131.354 6  93589211.866 7  22855452.123    22855446.227          43.000
        50.000  
 131537799.547 5 102497088.81641  25030845.570    25030837.379          36.000
        17.000  
 129300604.157 6 100753702.031 5  24605094.001    24605083.066          43.000
        37.000  
 121568564.512 6  94728614.558 7  23133704.601    23133697.577          43.000
        50.000  
 130997665.401 5 102076105.930 5  24928042.609    24928031.898          39.000
        38.000  
 110640252.759 6  86213149.895 8  21054140.578    21054132.918          44.000
        55.000  
 125175889.677 4                  23457904.891                          31.000
                  23457904.918
 116797990.948 6  90842839.892 6  21880197.898    21880188.730          44.000
        43.000    21880196.984
 119289725.169 6  92780840.337 5  22315608.133    22315599.199          44.000
        39.000    22315607.688
 114393904.648 5  88973001.925 6  21392234.297    21392228.063          37.000
        45.000    21392233.734
 127746942.360 5  99358681.156 5  23855835.828    23855829.008          36.000
        36.000    23855834.094
 128181741.074 4  99881872.804 4  24392182.844    24392174.770          35.000
        34.000  
 108467201.364 6  84519887.50545  20640631.790    20640621.373          44.000
        39.000  
 116108534.216 6  90306506.999 6  21728108.039    21728099.105          45.000
        43.000    21728107.832
 103363983.849 5  80394175.322 7  19322810.266    19322801.449          36.000
        46.000    19322808.297
 122061039.819 4  94936326.588 5  22850077.430    22850069.316          33.000
        37.000    22850077.926
 125037562.967 5  97251386.920 5  23456727.836    23456717.496          40.000
        36.000    23456728.566
 20  7  1 12  3 15.0000000  0 20G 1G22G 9G 8G16G 7G 3G31G 4R 6R18R 5
                                R20R 4G17G11R15R19R16R14
 107442889.739 7  83721789.279 8  20445726.574    20445719.494          49.000
        55.000  
 119404241.566 7  93042145.52744  22721858.846    22721845.191          46.000
        33.000  
 117286132.087 6  91391844.702 7  22318834.595    22318826.349          45.000
        50.000  
 120148473.923 6  93622206.074 7  22863510.842    22863503.071          44.000
        50.000  
 131537737.763 5 102497040.64841  25030833.000    25030825.922          36.000
        16.000  
 129246939.756 6 100711885.613 5  24594881.181    24594871.652          43.000
        37.000  
 121559329.701 6  94721418.602 7  23131946.726    23131940.171          43.000
        50.000  
 131035603.543 5 102105668.125 5  24935261.016    24935251.359          38.000
        37.000  
 110654299.699 7  86224095.561 8  21056813.867    21056805.211          46.000
        55.000  
 125176548.466 4                  23458030.125                          32.000
                  23458029.211
 116857937.895 6  90889465.287 6  21891427.539    21891419.543          42.000
        44.000    21891426.742
 119311017.557 6  92797401.121 5  22319590.797    22319582.215          44.000
        38.000    22319590.352
 114346738.381 5  88936317.016 6  21383413.703    21383407.820          37.000
        45.000    21383413.496
 127771613.456 4  99377869.729 4  23860442.047    23860434.051          35.000
        34.000    23860441.723
 128153685.346 5  99860011.144 4  24386845.305    24386835.590          36.000
        35.000  
 108482814.304 7  84532053.42745  20643603.290    20643592.697          46.000
        38.000  
 116085590.843 7  90288662.156 6  21723815.664    21723806.145          46.000
        43.000    21723814.984
 103381471.569 4  80407776.913 7  19326079.703    19326069.949          35.000
        46.000    19326077.383
 122017672.923 4  94902596.798 5  22841960.289    22841950.652          35.000
        37.000    22841958.789
 125049593.879 5  97260744.286 5  23458985.375    23458977.496          40.000
        38.000    23458985.637
 20  7  1 12  3 30.0000000  0 20G 1G22G 9G 8G16G 7G 3G31G 4R 6R18R 5
                                R20R 4G17G11R15R19R16R14
 107421197.401 7  83704886.166 8  20441598.918    20441591.310          50.000
        55.000  
 119397335.747 7  93036764.36244  22720544.112    22720531.101          46.000
        32.000  
 117273764.771 7  91382207.821 7  22316481.321    22316472.958          46.000
        50.000  
 120190814.672 6  93655198.852 6  22871567.467    22871559.930          43.000
        45.000  
 131537638.162 4                  25030813.842                          34.000
                
 129193257.635 6 100670055.385 5  24584666.165    24584656.226          43.000
        37.000  
 121550054.925 6  94714191.500 7  23130181.758    23130175.436          43.000
        50.000  
 131073610.958 5 102135284.329 5  24942492.953    24942484.059          37.000
        36.000  
 110668433.875 7  86235109.189 8  21059503.531    21059494.875          46.000
        55.000  
 125177251.211 4                  23458161.352                          32.000
                  23458160.320
 116917951.382 6  90936142.408 6  21902670.633    21902662.285          43.000
        44.000    21902669.016
 119332281.117 6  92813939.376 5  22323568.961    22323560.496          44.000
        39.000    22323568.398
 114299705.942 5  88899736.236 6  21374619.367    21374612.898          37.000
        45.000    21374618.336
 127796206.393 4  99396997.595 5  23865033.961    23865028.195          31.000
        36.000    23865032.930
 128125733.123 5  99838230.180 5  24381525.898    24381516.242          37.000
        37.000  
 108498545.342 7  84544311.37545  20646596.774    20646585.772          46.000
        38.000  
 116062724.414 7  90270877.135 6  21719536.711    21719526.957          46.000
        44.000    21719535.563
 103399154.167 5  80421530.036 7  19329385.078    19329375.559          36.000
        46.000    19329383.344
 121974269.145 4  94868838.319 5  22833835.539    22833824.844          35.000
        39.000    22833833.570
 125061751.542 5  97270200.253 5  23461265.242    23461258.422          40.000
        39.000    23461265.621
 20  7  1 12  3 45.0000000  0 20G 1G22G 9G 8G16G 7G 3G31G 4R 6R18R 5
                                R20R 4G17G11R15R19R16R14
 107399623.370 7  83688075.238 8  20437493.199    20437486.353          49.000
        55.000  
 119390418.829 6  93031374.54044  22719228.182    22719215.464          45.000
        31.000  
 117261495.573 7  91372647.395 7  22314146.642    22314139.333          46.000
        50.000  
 120233153.065 6  93688189.794 7  22879623.858    22879617.785          43.000
        50.000  
 131537500.535 4                  25030787.420                          35.000
                
 129139557.769 6 100628211.325 5  24574448.454    24574437.519          44.000
        38.000  
 121540739.947 6  94706933.071 7  23128409.351    23128402.268          43.000
        50.000  
 131111687.284 4 102164954.202 5  24949738.969    24949729.723          35.000
        36.000  
 110682654.732 7  86246190.366 8  21062209.328    21062200.965          46.000
        55.000  
 125177997.213 4                  23458302.281                          33.000
                  23458301.250
 116978030.279 6  90982870.393 6  21913926.039    21913915.699          42.000
        44.000    21913924.422
 119353515.129 6  92830454.671 5  22327541.320    22327533.914          44.000
        40.000    22327540.758
 114252807.340 5  88863259.564 6  21365847.930    21365842.164          36.000
        45.000    21365847.723
 127820720.898 4  99416064.376 5  23869611.789    23869607.195          33.000
        38.000    23869612.754
 128097884.180 5  99816529.710 5  24376225.558    24376216.715          36.000
        37.000  
 108514394.031 7  84556661.00545  20649612.610    20649601.432          47.000
        38.000  
 116039935.249 7  90253152.278 6  21715270.758    21715262.762          46.000
        43.000    21715270.902
 103417031.175 4  80435434.360 7  19332726.289    19332718.176          35.000
        46.000    19332725.258
 121930828.370 4  94835051.051 5  22825701.609    22825693.145          34.000
        39.000    22825700.578
 125074035.799 5  97279754.649 5  23463566.945    23463561.766          37.000
        37.000    23463566.855
 20  7  1 12  3 60.0000000  0 20G 1G22G 9G 8G16G 7G 3G31G 4R 6R18R 5
                                R20R 4G17G11R15R19R16R14
 107378167.793 7  83671356.589 8  20433410.574    20433403.201          49.000
        55.000  
 119383490.734 6  93025976.00044  22717909.089    22717896.781          44.000
        31.000  
 117249324.179 6  91363163.193 7  22311830.165    22311822.564          45.000
        50.000  
 120275488.801 6  93721178.671 7  22887680.342    22887673.450          43.000
        50.000  
 131537325.286 5                  25030754.975                          36.000
                
 129085840.149 6 100586353.446 5  24564225.509    24564215.453          44.000
        39.000  
 121531384.651 6  94699643.212 7  23126629.242    23126623.155          43.000
        50.000  
 131149832.16213 102194677.44814  24956996.180    24956988.105          30.000
        35.000  
 110696961.757 7  86257338.689 8  21064931.813    21064923.801          46.000
        55.000  
 125178786.495 4                  23458448.453                          33.000
                  23458448.363
 117038173.893 6  91029648.761 6  21925190.664    21925182.902          43.000
        43.000    21925190.809
 119374719.270 6  92846946.785 6  22331508.188    22331501.602          43.000
        42.000    22331507.980
 114206042.969 5  88826887.305 6  21357104.391    21357097.219          37.000
        45.000    21357102.305
 127845156.692 4  99435070.023 5  23874175.438    23874171.316          33.000
        38.000    23874174.172
 128070138.276 5  99794909.554 5  24370945.745    24370936.785          37.000
        37.000  
 108530359.923 7  84569101.95845  20652651.329    20652639.447          48.000
        38.000  
 116017223.613 6  90235487.637 6  21711020.102    21711011.871          44.000
        43.000    21711019.656
 103435102.063 4  80449489.487 7  19336104.305    19336096.074          35.000
        46.000    19336103.391
 121887350.898 4  94801235.265 5  22817562.617    22817553.566          35.000
        39.000    22817561.117
 125086446.309 5  97289407.320 5  23465898.867    23465888.293          40.000
        37.000    23465899.480
 20  7  1 12  4 15.0000000  0 20G 1G22G 9G 8G16G 7G 3G31G 4R 6R18R 5
                                R20R 4G17G11R15R19R16R14
 107356831.336 7  83654730.766 8  20429350.176    20429343.038          49.000
        55.000  
 119376552.018 6  93020569.19644  22716589.073    22716576.648          45.000
        31.000  
 117237250.888 6  91353755.429 7  22309532.149    22309524.255          45.000
        50.000  
 120317821.930 6  93754165.522 7  22895735.928    22895729.504          43.000
        50.000  
 131537112.743 5                  25030715.006                          36.000
                
 129032105.542 6 100544482.318 5  24554000.126    24553990.480          42.000
        38.000  
 121521989.497 6  94692322.323 7  23124842.211    23124835.069          44.000
        50.000  
 131188045.75713 102224454.16914  24964267.125    24964259.578          30.000
        34.000  
 110711355.083 7  86268554.261 8  21067670.664    21067662.828          46.000
        55.000  
 125179618.842 4                  23458605.172                          32.000
                  23458603.789
 117098381.985 6  91076477.230 6  21936469.555    21936462.617          42.000
        43.000    21936469.699
 119395893.459 6  92863415.568 6  22335469.680    22335461.332          45.000
        42.000    22335469.117
 114159413.642 5  88790620.083 6  21348383.336    21348376.750          37.000
        45.000    21348382.305
 127869514.159 4  99454014.644 5  23878725.281    23878721.277          34.000
        37.000    23878724.719
 128042496.452 5  99773370.443 5  24365685.261    24365676.945          37.000
        37.000  
 108546443.420 7  84581634.55245  20655711.204    20655700.025          47.000
        38.000  
 115994590.253 6  90217883.938 6  21706785.328    21706776.277          45.000
        43.000    21706784.648
 103453366.847 5  80463695.434 7  19339519.211    19339511.098          36.000
        46.000    19339517.828
 121843837.828 4  94767391.774 5  22809414.891    22809408.188          35.000
        38.000    22809415.621
 125098983.906 5  97299158.828 5  23468250.156    23468240.754          39.000
        36.000    23468251.004
 20  7  1 12  4 30.0000000  0 20G 1G22G 9G 8G16G 7G 3G31G 4R 6R18R 5
                                R20R 4G17G11R15R19R16R14
 107335613.938 7  83638197.719 8  20425313.262    20425306.007          49.000
        55.000  
 119369602.498 6  93015153.98043  22715266.612    22715253.894          45.000
        30.000  
 117225275.231 6  91344423.754 7  22307253.540    22307245.763          45.000
        50.000  
 120360151.661 6  93787149.725 7  22903791.545    22903785.473          43.000
        50.000  
 131536862.740 4                  25030666.858                          34.000
                
 128978353.870 6 100502597.886 5  24543771.525    24543761.937          42.000
        38.000  
 121512554.205 6  94684970.142 7  23123046.492    23123040.405          44.000
        50.000  
 131226327.462 3 102254284.011 4  24971553.930    24971544.566          30.000
        35.000  
 110725834.066 7  86279836.567 8  21070426.859    21070417.617          47.000
        55.000  
 125180493.515 3                  23458769.258                          29.000
                  23458767.641
 117158653.733 6  91123355.250 6  21947761.352    21947752.184          43.000
        42.000    21947761.262
 119417037.154 6  92879860.632 6  22339426.563    22339418.566          44.000
        43.000    22339426.238
 114112919.711 5  88754458.084 6  21339688.758    21339683.344          37.000
        45.000    21339688.434
 127893792.974 4  99472898.158 5  23883258.039    23883252.273          34.000
        36.000    23883258.418
 128014958.298 5  99751912.092 5  24360445.018    24360435.941          37.000
        37.000  
 108562643.958 7  84594258.35045  20658794.446    20658782.975          46.000
        38.000  
 115972035.408 6  90200341.272 6  21702565.141    21702556.207          44.000
        43.000    21702563.758
 103471825.120 5  80478051.845 7  19342970.328    19342960.691          36.000
        46.000    19342968.945
 121800288.659 5  94733520.227 5  22801263.180    22801254.715          37.000
        38.000    22801263.793
 125111647.999 5  97309008.672 5  23470627.375    23470619.852          40.000
        38.000    23470625.641
 20  7  1 12  4 45.0000000  0 20G 1G22G 9G 8G16G 7G 3G31G 4R 6R18R 5
                                R20R 4G17G11R15R19R16R14
 107314515.881 7  83621757.670 8  20421297.918    20421291.307          49.000
        55.000  
 119362642.251 6  93009730.39743  22713941.198    22713929.124          44.000
        30.000  
 117213397.076 6  91335168.020 7  22304993.571    22304985.149          45.000
        50.000  
 120402477.526 6  93820130.924 7  22911845.873    22911839.625          44.000
        50.000  
 131536575.471 5                  25030613.529                          36.000
                
 128924585.485 6 100460700.451 5  24533539.204    24533530.671          41.000
        39.000  
 121503078.755 6  94677586.630 7  23121243.617    23121237.003          44.000
        50.000  
 131264676.959 4 102284166.659 4  24978851.844    24978842.129          34.000
        34.000  
 110740398.319 7  86291185.319 8  21073198.070    21073189.297          46.000
        55.000  
 125181410.01513                  23458939.945                          27.000
                  23458938.797
 117218988.540 6  91170282.298 6  21959065.109    21959054.652          44.000
        41.000    21959063.609
 119438149.824 6  92896281.606 6  22343376.164    22343365.469          44.000
        41.000    22343375.602
 114066561.154 5  88718401.465 6  21331018.820    21331012.703          36.000
        45.000    21331018.141
 127917992.765 5  99491720.202 4  23887777.813    23887771.695          36.000
        35.000    23887777.133
 127987523.668 5  99730534.435 5  24355225.159    24355216.258          37.000
        37.000  
 108578961.191 7  84606973.08145  20661899.454    20661888.275          46.000
        38.000  
 115949559.403 7  90182859.941 6  21698358.891    21698349.605          46.000
        43.000    21698358.328
 103490476.200 5  80492558.273 7  19346457.047    19346447.645          36.000
        46.000    19346455.195
 121756703.880 5  94699620.941 5  22793104.867    22793096.051          36.000
        38.000    22793103.602
 125124438.886 5  97318957.098 5  23473024.875    23473018.055          40.000
        37.000    23473025.605
 20  7  1 12  4 60.0000000  0 19G 1G22G 9G 8G16G 7G 3G31G 4R18R 5R20
                                R 4G17G11R15R19R16R14
 107293537.233 7  83605410.665 8  20417305.762    20417299.034          49.000
        55.000  
 119355671.245 6  93004298.43243  22712614.589    22712603.160          44.000
        30.000  
 117201616.064 6  91325988.018 7  22302751.454    22302744.087          45.000
        50.000  
 120444799.010 6  93853108.692 7  22919900.037    22919892.910          44.000
        50.000  
 131536250.962 5                  25030551.615                          38.000
                
 128870800.447 6 100418790.035 5  24523304.634    24523295.457          41.000
        39.000  
 121493562.966 6  94670171.739 7  23119432.859    23119425.659          44.000
        50.000  
 131303093.870 5 102314101.890 4  24986163.445    24986152.617          37.000
        35.000  
 110755047.396 7  86302600.172 8  21075986.086    21075976.844          48.000
        55.000  
 117279385.515 6  91217257.718 6  21970379.938    21970370.301          44.000
        42.000    21970378.555
 119459231.086 6  92912678.101 6  22347318.695    22347309.996          43.000
        42.000    22347318.605
 114020338.448 4  88682450.462 7  21322374.688    21322369.273          35.000
        46.000    21322373.891
 127942113.481 5  99510480.735 5  23892283.008    23892277.359          37.000
        36.000    23892282.684
 127960192.500 5  99709237.397 5  24350022.847    24350015.176          36.000
        37.000  
 108595394.860 7  84619778.53245  20665026.165    20665015.748          47.000
        39.000  
 115927162.503 7  90165440.130 6  21694167.188    21694160.016          46.000
        44.000    21694166.625
 103509319.893 4  80507214.445 7  19349978.313    19349969.613          35.000
        46.000    19349977.633
 121713083.934 5  94665694.319 5  22784938.891    22784930.543          37.000
        38.000    22784938.211
 125137356.250 5  97329003.923 5  23475448.828    23475442.945          40.000
        37.000    23475449.324
 20  7  1 12  5 15.0000000  0 19G 1G22G 9G 8G16G 7G 3G31G 4R18R 5R20
                                R 4G17G11R15R19R16R14
 107272678.565 7  83589157.159 8  20413336.293    20413329.038          48.000
        55.000  
 119348689.879 6  92998858.37544  22711286.065    22711274.636          43.000
        31.000  
 117189932.406 6  91316883.853 7  22300528.220    22300521.556          45.000
        50.000  
 120487115.865 6  93886082.876 7  22927952.326    22927945.375          43.000
        50.000  
 131535889.612 5                  25030483.139                          38.000
                
 128816999.166 6 100376866.947 5  24513066.345    24513057.285          41.000
        39.000  
 121484007.266 6  94662725.737 7  23117614.125    23117608.096          43.000
        50.000  
 131341578.212 5 102344089.671 4  24993486.375    24993476.367          37.000
        33.000  
 110769781.246 7  86314081.083 8  21078789.305    21078780.297          46.000
        55.000  
 117339844.505 6  91264281.363 6  21981705.563    21981695.457          45.000
        41.000    21981704.297
 119480280.885 6  92929050.143 6  22351256.852    22351248.152          43.000
        42.000    22351256.055
 113974252.458 4  88646605.861 6  21313755.922    21313751.094          35.000
        45.000    21313755.715
 127966155.363 5  99529180.048 4  23896771.484    23896763.371          37.000
        34.000    23896771.039
 127932965.122 5  99688021.213 5  24344842.159    24344834.195          36.000
        37.000  
 108611945.044 7  84632674.77645  20668175.931    20668165.338          47.000
        38.000  
 115904845.548 6  90148082.487 6  21689991.336    21689983.574          45.000
        43.000    21689990.891
 103528356.080 5  80522020.380 7  19353537.695    19353528.762          36.000
        46.000    19353536.195
 121669429.180 5  94631740.661 5  22776767.164    22776758.230          37.000
        37.000    22776765.313
 125150400.414 5  97339149.465 5  23477896.430    23477888.199          40.000
        37.000    23477895.516
 20  7  1 12  5 30.0000000  0 19G 1G22G 9G 8G16G 7G 3G31G 4R18R 5R20
                                R 4G17G11R15R19R16R14
 107251940.548 7  83572997.645 8  20409390.129    20409383.225          48.000
        55.000  
 119341698.676 6  92993410.67843  22709955.300    22709944.163          43.000
        30.000  
 117178346.312 7  91307855.719 7  22298324.329    22298315.790          46.000
        50.000  
 120529428.327 6  93919053.617 7  22936003.733    22935998.305          43.000
        50.000  
 131535491.890 5 102495285.16941  25030406.828    25030396.938          37.000
        17.000  
 128763182.308 5 100334931.736 5  24502825.384    24502816.324          40.000
        40.000  
 121474411.962 6  94655248.842 7  23115787.867    23115781.253          44.000
        50.000  
 131380130.039 5 102374130.056 4  25000823.633    25000812.512          40.000
        32.000  
 110784599.869 7  86325628.070 8  21081608.688    21081600.617          46.000
        55.000  
 117400365.212 6  91311353.034 6  21993042.602    21993033.434          45.000
        42.000    21993042.395
 119501299.170 6  92945397.713 6  22355187.867    22355179.988          43.000
        43.000    22355187.305
 113928303.785 4  88610867.962 6  21305164.180    21305158.180          35.000
        45.000    21305164.324
 127990118.649 5  99547818.005 5  23901247.273    23901242.797          37.000
        37.000    23901247.770
 127905842.000 5  99666886.335 5  24339681.292    24339672.859          36.000
        37.000  
 108628611.909 7  84645661.92945  20671347.993    20671336.815          47.000
        38.000  
 115882609.204 7  90130787.559 6  21685830.102    21685820.465          46.000
        42.000    21685828.602
 103547584.875 5  80536976.108 7  19357131.430    19357123.434          36.000
        46.000    19357130.867
 121625740.396 5  94597760.478 5  22768588.516    22768579.582          38.000
        37.000    22768587.367
 125163572.031 6  97349394.037 4  23480367.594    23480356.664          41.000
        35.000    23480366.914
 20  7  1 12  5 45.0000000  0 19G 1G22G 9G 8G16G 7G 3G31G 4R18R 5R20
                                R 4G17G11R15R19R16R14
 107231323.014 7  83556932.041 8  20405467.246    20405459.698          48.000
        55.000  
 119334697.338 6  92987955.07144  22708624.026    22708613.007          43.000
        31.000  
 117166857.234 6  91298903.176 7  22296137.501    22296129.606          45.000
        50.000  
 120571735.715 6  93952020.395 7  22944055.162    22944048.563          43.000
        50.000  
 131535057.664 5 102494946.71741  25030324.484    25030314.887          36.000
        18.000  
 128709349.828 5 100292984.348 5  24492581.368    24492571.664          40.000
        39.000  
 121464776.687 6  94647740.863 7  23113953.820    23113947.967          43.000
        50.000  
 131418748.688 5 102404222.538 4  25008171.320    25008161.605          39.000
        34.000  
 110799502.592 7  86337240.566 8  21084445.477    21084436.293          47.000
        55.000  
 117460946.872 6  91358472.112 6  22004392.688    22004382.934          45.000
        42.000    22004391.539
 119522285.320 6  92961720.248 6  22359112.508    22359107.680          43.000
        43.000    22359112.652
 113882492.470 4  88575236.965 6  21296598.594    21296591.891          35.000
        45.000    21296597.211
 128014002.905 4  99566394.650 5  23905706.797    23905701.500          35.000
        38.000    23905705.648
 127878822.582 5  99645832.233 5  24334541.159    24334530.910          39.000
        36.000  
 108645394.943 7  84658739.61845  20674541.790    20674530.553          48.000
        39.000  
 115860453.463 6  90113555.320 6  21681683.078    21681674.730          45.000
        43.000    21681682.633
 103567005.396 5  80552080.957 7  19360763.047    19360754.699          36.000
        46.000    19360761.430
 121582017.491 5  94563753.758 5  22760402.813    22760393.059          38.000
        36.000    22760402.250
 125176870.675 6  97359737.388 5  23482862.688    23482855.398          42.000
        38.000    23482863.066
 20  7  1 12  5 60.0000000  0 19G 1G22G 9G 8G16G 7G 3G31G 4R18R 5R20
                                R 4G17G11R15R19R16R14
 107210826.795 7  83540960.959 8  20401566.535    20401559.514          49.000
        55.000  
 119327686.682 6  92982492.22744  22707290.135    22707278.941          44.000
        31.000  
 117155465.574 6  91290026.539 7  22293969.203    22293961.954          45.000
        50.000  
 120614037.963 6  93984983.173 7  22952104.436    22952098.657          43.000
        50.000  
 131534587.448 5 102494580.35441  25030234.563    25030225.492          37.000
        17.000  
 128655502.517 6 100251025.393 5  24482335.259    24482324.851          42.000
        39.000  
 121455102.105 6  94640202.207 7  23112113.008    23112105.983          42.000
        50.000  
 131457434.644 5 102434367.415 4  25015532.000    25015523.281          39.000
        35.000  
 110814489.637 7  86348918.778 8  21087297.664    21087288.891          47.000
        55.000  
 117521589.126 6  91405638.298 6  22015751.406    22015743.645          43.000
        42.000    22015751.316
 119543239.619 6  92978018.027 6  22363033.531    22363026.594          43.000
        43.000    22363032.969
 113836819.323 4  88539713.435 6  21288056.195    21288050.664          35.000
        45.000    21288054.461
 128037808.574 4  99584910.217 5  23910152.539    23910147.242          35.000
        40.000    23910153.152
 127851907.768 5  99624859.620 4  24329417.808    24329408.379          38.000
        35.000  
 108662294.768 7  84671908.31745  20677756.774    20677746.065          47.000
        39.000  
 115838379.522 7  90096386.695 6  21677553.344    21677543.941          46.000
        43.000    21677552.898
 103586618.016 5  80567335.172 7  19364428.828    19364420.363          36.000
        46.000    19364426.977
 121538261.294 5  94529721.152 5  22752212.711    22752202.957          38.000
        36.000    22752210.977
 125190296.884 5  97370180.007 5  23485381.234    23485374.063          40.000
        36.000    23485380.555
 20  7  1 12  6 15.0000000  0 20G 1G22G 9G 8G16G 7G 3G31G 4R 6R18R 5
                                R20R 4G17G11R15R19R16R14
 107190451.966 7  83525084.468 8  20397689.051    20397681.679          49.000
        55.000  
 119320666.551 6  92977021.96644  22705953.846    22705942.300          45.000
        32.000  
 117144170.978 6  91281225.558 7  22291819.844    22291812.302          45.000
        50.000  
 120656334.639 6  94017941.605 7  22960153.420    22960147.055          43.000
        50.000  
 131534081.443 4 102494185.97141  25030136.883    25030129.688          34.000
        17.000  
 128601640.495 6 100209054.999 5  24472086.267    24472075.566          42.000
        39.000  
 121445388.043 6  94632632.802 7  23110265.109    23110257.557          43.000
        50.000  
 131496187.385 5 102464564.330 4  25022906.719    25022898.117          39.000
        35.000  
 110829560.475 7  86360662.278 8  21090164.898    21090156.945          47.000
        55.000  
 125187784.359 4                  23460135.680                          31.000
                  23460132.539
 117582291.451 6  91452851.187 6  22027123.797    22027114.395          43.000
        42.000    22027122.063
 119564161.378 6  92994290.491 6  22366948.203    22366941.266          43.000
        43.000    22366947.758
 113791284.904 4  88504297.758 6  21279541.031    21279535.383          35.000
        45.000    21279539.648
 128061535.391 4  99603364.429 5  23914583.164    23914578.453          32.000
        39.000    23914583.074
 127825097.290 5  99603968.296 5  24324316.323    24324306.660          38.000
        36.000  
 108679310.611 7  84685167.40645  20680995.798    20680984.326          47.000
        39.000  
 115816387.455 7  90079281.738 6  21673437.984    21673429.754          46.000
        44.000    21673437.422
 103606422.038 4  80582738.335 7  19368130.477    19368122.832          34.000
        46.000    19368129.680
 121494472.227 5  94495663.002 4  22744015.313    22744004.500          38.000
        35.000    22744013.578
 125203850.680 5  97380721.860 5  23487923.977    23487916.453          40.000
        37.000    23487922.359
 20  7  1 12  6 30.0000000  0 20G 1G22G 9G 8G16G 7G 3G31G 4R 6R18R 5
                                R20R 4G17G11R15R19R16R14
 107170198.159 7  83509302.275 8  20393835.059    20393828.565          48.000
        55.000  
 119313636.436 6  92971543.95344  22704615.784    22704604.472          45.000
        32.000  
 117132972.721 7  91272499.641 7  22289689.484    22289682.060          46.000
        50.000  
 120698624.918 6  94050895.054 7  22968201.225    22968194.451          43.000
        50.000  
 131533539.151 5 102493763.43541  25030034.875    25030027.035          37.000
        17.000  
 128547763.510 6 100167072.926 5  24461833.337    24461823.164          42.000
        39.000  
 121435633.812 6  94625032.088 7  23108408.539    23108401.163          41.000
        50.000  
 131535006.133 5 102494812.684 5  25030294.023    25030285.070          40.000
        37.000  
 110844714.138 6  86372470.313 8  21093048.516    21093040.504          45.000
        55.000  
 125188985.419 4                  23460358.828                          32.000
                  23460358.031
 117643052.487 6  91500109.734 6  22038505.703    22038497.473          42.000
        42.000    22038505.848
 119585049.546 6  93010536.863 6  22370855.555    22370847.676          43.000
        42.000    22370854.641
 113745888.897 5  88468989.765 7  21271051.883    21271047.055          36.000
        46.000    21271051.320
 128085182.668 4  99621756.770 5  23918998.133    23918994.363          33.000
        37.000    23918998.160
 127798390.947 5  99583158.115 5  24319234.940    24319224.691          40.000
        37.000  
 108696441.756 7  84698516.35345  20684255.228    20684244.225          47.000
        38.000  
 115794477.087 7  90062240.357 6  21669337.438    21669329.793          46.000
        43.000    21669337.230
 103626416.646 4  80598289.652 7  19371867.094    19371860.156          35.000
        46.000    19371867.824
 121450649.516 5  94461578.645 5  22735810.867    22735802.402          39.000
        36.000    22735810.305
 125217531.156 5  97391362.300 5  23490488.578    23490483.633          40.000
        38.000    23490488.133
 20  7  1 12  6 45.0000000  0 20G 1G22G 9G 8G16G 7G 3G31G 4R 6R18R 5
                                R20R 4G17G11R15R19R16R14
 107150066.366 7  83493615.161 8  20390003.902    20389997.233          48.000
        55.000  
 119306597.128 6  92966058.76544  22703276.448    22703264.960          44.000
        31.000  
 117121871.335 7  91263849.190 7  22287577.414    22287569.931          46.000
        50.000  
 120740908.780 6  94083843.495 7  22976247.334    22976241.555          42.000
        50.000  
 131532961.381 5 102493313.15341  25029924.648    25029917.160          37.000
        16.000  
 128493872.361 6 100125079.836 5  24451577.736    24451568.675          42.000
        39.000  
 121425840.275 6  94617400.755 7  23106545.734    23106538.182          43.000
        50.000  
 131573891.091 5 102525112.628 5  25037693.844    25037685.887          40.000
        38.000  
 110859950.997 7  86384343.183 8  21095947.805    21095939.383          46.000
        55.000  
 125190225.802 4                  23460591.234                          32.000
                  23460589.617
 117703872.334 6  91547414.043 6  22049899.781    22049891.902          42.000
        44.000    22049898.516
 119605904.632 6  93026757.482 6  22374756.695    22374749.172          44.000
        42.000    22374756.723
 113700632.297 4  88433790.224 6  21262587.570    21262584.270          35.000
        45.000    21262587.832
 128108751.059 4  99640087.729 5  23923402.961    23923396.844          35.000
        37.000    23923402.637
 127771789.241 5  99562429.473 5  24314172.214    24314162.844          40.000
        36.000  
 108713688.550 7  84711955.40645  20687537.251    20687525.838          47.000
        38.000  
 115772649.571 7  90045263.413 6  21665252.570    21665243.754          46.000
        43.000    21665252.008
 103646602.270 5  80613989.581 6  19375642.391    19375633.105          36.000
        45.000    19375640.656
 121406794.857 5  94427469.493 4  22727600.227    22727591.410          38.000
        34.000    22727599.902
 125231339.483 5  97402102.090 5  23493078.211    23493074.090          38.000
        40.000    23493078.238
 20  7  1 12  6 60.0000000  0 20G 1G22G 9G 8G16G 7G 3G31G 4R 6R18R 5
                                R20R 4G17G11R15R19R16R14
 107130056.801 7  83478023.294 8  20386196.926    20386189.319          50.000
        55.000  
 119299548.796 6  92960566.55244  22701934.995    22701923.624          45.000
        32.000  
 117110866.677 6  91255274.148 7  22285482.656    22285474.939          45.000
        50.000  
 120783186.262 6  94116786.958 7  22984292.108    22984286.270          42.000
        50.000  
 131532348.653 5 102492835.6464   25029809.125    25029799.938          37.000
        14.000  
 128439967.387 6 100083075.976 5  24441320.603    24441310.371          41.000
        40.000  
 121416007.418 6  94609738.760 7  23104673.640    23104667.202          43.000
        50.000  
 131612842.114 5 102555464.064 5  25045105.375    25045098.766          39.000
        38.000  
 110875270.767 7  86396280.648 8  21098863.703    21098854.109          46.000
        55.000  
 125191505.55413                  23460829.680                          29.000
                  23460828.531
 117764750.470 6  91594763.676 6  22061304.070    22061297.133          41.000
        44.000    22061303.391
 119626726.321 6  93042952.107 6  22378652.398    22378643.816          45.000
        42.000    22378651.953
 113655515.690 4  88398699.450 6  21254151.477    21254144.891          35.000
        44.000    21254149.742
 128132240.640 5  99658357.327 5  23927787.477    23927783.121          36.000
        36.000    23927787.270
 127745292.045 5  99541782.279 4  24309129.065    24309120.223          38.000
        34.000  
 108731050.927 7  84725484.53145  20690840.479    20690829.768          46.000
        39.000  
 115750905.322 7  90028351.170 6  21661183.977    21661174.809          46.000
        42.000    21661183.180
 103666978.578 5  80629837.847 6  19379452.648    19379443.480          36.000
        45.000    19379451.031
 121362908.263 5  94393335.459 4  22719385.344    22719376.879          38.000
        35.000    22719383.961
 125245275.382 5  97412941.137 5  23495691.820    23495686.992          37.000
        40.000    23495691.496
 20  7  1 12  7 15.0000000  0 20G 1G22G 9G 8G16G 7G 3G31G 4R 6R18R 5
                                R20R 4G17G11R15R19R16R14
 107110170.102 7  83462527.164 8  20382412.723    20382405.761          50.000
        55.000  
 119292492.003 6  92955067.74444  22700591.901    22700580.648          44.000
        31.000  
 117099958.981 7  91246774.631 7  22283407.078    22283399.301          46.000
        50.000  
 120825457.241 6  94149725.363 7  22992335.694    22992329.914          42.000
        50.000  
 131531700.897 5 102492330.85041  25029685.430    25029676.301          37.000
        16.000  
 128386049.081 6 100041061.705 5  24431059.993    24431050.289          42.000
        39.000  
 121406135.628 6  94602046.479 7  23102795.344    23102788.202          43.000
        50.000  
 131651859.252 5 102585867.026 5  25052530.891    25052523.227          39.000
        38.000  
 110890673.408 7  86408282.698 8  21101794.938    21101785.930          47.000
        55.000  
 125192824.52413                  23461076.375                          28.000
                  23461078.043
 117825686.718 6  91642158.516 6  22072718.555    22072710.324          41.000
        43.000    22072718.230
 119647514.767 6  93059120.858 6  22382540.375    22382533.320          45.000
        42.000    22382540.520
 113610539.761 4  88363718.190 6  21245739.484    21245736.184          35.000
        45.000    21245738.922
 128155651.537 5  99676565.760 4  23932160.781    23932152.434          38.000
        35.000    23932160.457
 127718899.897 5  99521216.945 5  24304107.518    24304098.266          40.000
        36.000  
 108748528.964 7  84739103.76745  20694166.744    20694156.386          46.000
        38.000  
 115729245.139 7  90011504.385 6  21657130.039    21657121.223          46.000
        43.000    21657129.008
 103687545.367 4  80645834.227 7  19383295.813    19383288.051          35.000
        46.000    19383294.898
 121318990.504 5  94359177.218 5  22711164.125    22711156.480          38.000
        36.000    22711162.742
 125259339.397 5  97423879.770 5  23498333.023    23498325.500          40.000
        40.000    23498332.461
 20  7  1 12  7 30.0000000  0 19G 1G22G 9G 8G16G 7G 3G31G 4R18R 5R20
                                R 4G17G11R15R19R16R14
 107090405.870 7  83447126.451 8  20378651.410    20378644.155          49.000
        55.000  
 119285426.134 6  92949561.84943  22699248.050    22699236.386          44.000
        30.000  
 117089147.375 6  91238349.984 7  22281349.500    22281342.367          45.000
        50.000  
 120867720.689 6  94182657.891 7  23000377.990    23000371.451          42.000
        50.000  
 131531017.691 5 102491798.47541  25029555.773    25029546.117          37.000
        18.000  
 128332117.158 6  99999036.842 5  24420797.845    24420787.613          41.000
        40.000  
 121396224.265 6  94594323.338 7  23100909.312    23100901.936          41.000
        50.000  
 131690941.663 5 102616320.869 5  25059968.688    25059959.676          40.000
        38.000  
 110906157.933 7  86420348.556 8  21104740.563    21104732.551          47.000
        55.000  
 117886679.765 6  91689597.508 6  22084144.891    22084136.309          42.000
        43.000    22084144.211
 119668268.753 6  93075262.850 6  22386422.703    22386416.703          45.000
        43.000    22386422.379
 113565704.273 4  88328846.109 6  21237355.117    21237350.289          35.000
        45.000    21237354.320
 128178982.792 5  99694712.292 5  23936515.195    23936510.719          36.000
        38.000    23936515.574
 127692612.238 5  99500733.016 5  24299105.558    24299096.012          39.000
        37.000  
 108766121.839 7  84752812.48845  20697514.846    20697503.726          47.000
        38.000  
 115707668.666 6  89994722.659 6  21653091.086    21653083.207          45.000
        43.000    21653090.996
 103708301.896 4  80661978.174 7  19387176.133    19387167.785          35.000
        46.000    19387174.984
 121275041.055 5  94324994.291 4  22702935.680    22702928.625          38.000
        35.000    22702934.414
 125273530.930 6  97434917.600 5  23500995.352    23500987.004          41.000
        38.000    23500995.848
 20  7  1 12  7 45.0000000  0 20G 1G22G 9G 8G16G 7G 3G31G 4R 6R18R 5
                                R20R 4G17G11R15R19R16R14
 107070764.850 7  83431821.771 8  20374913.324    20374906.479          49.000
        55.000  
 119278351.769 6  92944049.34244  22697901.464    22697890.445          44.000
        31.000  
 117078432.236 6  91230000.524 7  22279310.758    22279303.098          45.000
        50.000  
 120909976.398 6  94215584.406 7  23008420.194    23008412.833          42.000
        50.000  
 131530299.857 5 102491239.07441  25029417.367    25029409.938          37.000
        16.000  
 128278172.406 5  99957001.984 5  24410532.009    24410522.246          40.000
        39.000  
 121386273.932 6  94586569.820 7  23099015.601    23099008.518          41.000
        50.000  
 131730089.508 5 102646825.683 5  25067417.289    25067409.098          40.000
        37.000  
 110921724.533 7  86432478.370 8  21107703.508    21107694.500          47.000
        55.000  
 125195576.259 3                  23461592.523                          29.000
                  23461591.844
 117947729.542 6  91737080.668 6  22095581.938    22095574.531          42.000
        44.000    22095581.375
 119688988.486 7  93091378.176 6  22390300.109    22390290.824          46.000
        43.000    22390299.547
 113521009.920 4  88294083.835 6  21228998.055    21228992.992          35.000
        45.000    21228997.258
 128202235.261 5  99712797.511 5  23940858.172    23940852.055          36.000
        37.000    23940857.258
 127666429.603 5  99480330.959 5  24294123.151    24294113.782          40.000
        38.000  
 108783829.878 7  84766610.95545  20700884.447    20700873.679          47.000
        38.000  
 115686177.118 6  89978007.005 6  21649069.758    21649062.113          45.000
        43.000    21649069.551
 103729248.002 5  80678269.567 7  19391092.445    19391083.629          36.000
        46.000    19391090.711
 121231060.869 5  94290787.483 4  22694703.023    22694696.320          37.000
        35.000    22694702.461
 125287850.454 5  97446055.063 5  23503679.469    23503672.063          40.000
        37.000    23503680.199
 20  7  1 12  7 60.0000000  0 20G 1G22G 9G 8G16G 7G 3G31G 4R 6R18R 5
                                R20R 4G17G11R15R19R16R14
 107051247.302 7  83416613.307 8  20371199.457    20371192.612          49.000
        55.000  
 119271269.091 6  92938530.37944  22696554.526    22696542.335          45.000
        32.000  
 117067813.416 7  91221726.110 7  22277290.016    22277282.414          46.000
        50.000  
 120952224.439 6  94248504.942 7  23016457.819    23016452.391          41.000
        50.000  
 131529547.591 5 102490652.88041  25029276.250    25029267.180          36.000
        18.000  
 128224215.106 5  99914957.351 5  24400264.126    24400254.480          40.000
        39.000  
 121376284.580 6  94578785.905 7  23097114.328    23097108.065          42.000
        50.000  
 131769302.621 5 102677381.340 5  25074879.563    25074870.727          40.000
        37.000  
 110937372.906 7  86444671.893 8  21110681.391    21110672.441          47.000
        55.000  
 125197008.964 3                  23461864.797                          29.000
                  23461859.895
 118008835.375 6  91784607.407 6  22107028.258    22107021.086          43.000
        43.000    22107028.754
 119709673.804 7  93107466.771 6  22394169.445    22394160.746          46.000
        42.000    22394169.000
 113476457.400 4  88259431.862 6  21220666.555    21220659.852          35.000
        45.000    21220664.586
 128225408.685 5  99730821.275 5  23945185.828    23945179.594          36.000
        37.000    23945184.328
 127640352.049 5  99460010.779 5  24289159.995    24289151.505          39.000
        37.000  
 108801652.889 7  84780499.01445  20704276.236    20704265.292          47.000
        38.000  
 115664770.661 6  89961357.529 6  21645064.203    21645057.383          45.000
        44.000    21645064.465
 103750383.581 4  80694708.367 7  19395043.180    19395034.480          35.000
        46.000    19395042.031
 121187050.384 5  94256557.094 4  22686465.164    22686454.941          38.000
        34.000    22686463.898
 125302298.086 5  97457292.076 5  23506391.188    23506383.426          40.000
        37.000    23506389.922
 20  7  1 12  8 15.0000000  0 20G 1G22G 9G 8G16G 7G 3G31G 4R 6R18R 5
                                R20R 4G17G11R15R19R16R14
 107031853.679 7  83401501.379 8  20367508.777    20367502.108          49.000
        55.000  
 119264178.464 6  92933005.22144  22695204.542    22695192.292          45.000
        32.000  
 117057290.906 7  91213526.746 7  22275287.336    22275280.145          46.000
        50.000  
 120994464.487 6  94281419.240 7  23024496.225    23024490.388          41.000
        50.000  
 131528761.211 5 102490040.11441  25029125.852    25029118.070          38.000
        19.000  
 128170245.645 5  99872903.231 5  24389993.462    24389984.225          39.000
        39.000  
 121366256.469 6  94570971.776 7  23095205.680    23095200.354          42.000
        50.000  
 131808580.799 5 102707987.721 5  25082352.422    25082344.348          39.000
        36.000  
 110953102.855 7  86456928.982 8  21113674.563    21113666.023          47.000
        55.000  
 125198479.23713                  23462139.141                          30.000
                  23462136.703
 118069996.918 6  91832177.476 6  22118486.242    22118478.480          43.000
        43.000    22118485.211
 119730324.335 6  93123528.262 6  22398032.336    22398024.105          45.000
        42.000    22398032.246
 113432047.135 4  88224890.519 7  21212362.547    21212356.078          35.000
        46.000    21212360.930
 128248503.183 5  99748783.671 5  23949499.516    23949490.699          36.000
        37.000    23949499.191
 127614379.745 5  99439772.595 5  24284217.737    24284208.485          39.000
        38.000  
 108819590.786 7  84794476.59045  20707689.549    20707678.780          47.000
        39.000  
 115643449.977 7  89944774.769 6  21641074.773    21641066.309          46.000
        43.000    21641074.094
 103771708.396 5  80711294.341 7  19399029.375    19399020.676          36.000
        46.000    19399028.578
 121143010.142 5  94222303.553 4  22678219.320    22678209.215          37.000
        35.000    22678218.406
 125316873.819 6  97468628.773 5  23509125.516    23509115.996          41.000
        37.000    23509125.309
 20  7  1 12  8 30.0000000  0 20G 1G22G 9G 8G16G 7G 3G31G 4R 6R18R 5
                                R20R 4G17G11R15R19R16R14
 107012584.216 7  83386486.212 8  20363842.988    20363834.561          50.000
        55.000  
 119257079.943 6  92927473.89844  22693854.151    22693842.546          45.000
        32.000  
 117046864.584 7  91205402.318 7  22273303.766    22273296.398          46.000
        50.000  
 121036696.094 6  94314326.980 7  23032533.139    23032526.716          42.000
        50.000  
 131527940.816 5 102489400.81141  25028970.148    25028961.137          36.000
        20.000  
 128116264.244 5  99830839.810 5  24379721.798    24379711.332          39.000
        38.000  
 121356189.620 6  94563127.483 7  23093290.937    23093284.674          43.000
        50.000  
 131847923.878 5 102738644.662 5  25089839.609    25089831.359          40.000
        36.000  
 110968914.055 7  86469249.394 8  21116683.164    21116674.684          47.000
        55.000  
 125199986.644 3                  23462420.086                          30.000
                  23462418.469
 118131213.536 6  91879790.387 6  22129955.633    22129947.402          43.000
        43.000    22129954.250
 119750939.896 6  93139562.572 6  22401888.539    22401881.250          45.000
        42.000    22401887.977
 113387779.730 5  88190460.314 7  21204084.258    21204078.727          36.000
        46.000    21204083.109
 128271518.676 5  99766684.556 5  23953798.406    23953790.293          36.000
        38.000    23953798.082
 127588512.891 6  99419616.577 5  24279296.722    24279287.001          41.000
        38.000  
 108837643.457 7  84808543.60345  20711124.791    20711113.905          47.000
        38.000  
 115622215.551 6  89928259.088 6  21637100.891    21637092.426          45.000
        43.000    21637099.977
 103793222.172 5  80728027.276 6  19403052.828    19403042.488          36.000
        45.000    19403050.391
 121098940.694 5  94188027.342 5  22669969.219    22669962.164          37.000
        36.000    22669968.773
 125331577.889 6  97480065.265 5  23511884.422    23511876.777          42.000
        38.000    23511883.742
 20  7  1 12  8 45.0000000  0 20G 1G22G 9G 8G16G 7G 3G31G 4R 6R18R 5
                                R20R 4G17G11R15R19R16R14
 106993438.811 7  83371567.722 8  20360199.480    20360191.991          50.000
        55.000  
 119249973.302 6  92921936.24644  22692501.620    22692490.133          45.000
        32.000  
 117036533.978 7  91197352.499 7  22271338.016    22271330.121          46.000
        50.000  
 121078918.550 6  94347227.580 7  23040568.733    23040562.076          43.000
        50.000  
 131527086.370 5 102488734.99641  25028807.594    25028798.523          38.000
        19.000  
 128062270.885 5  99788767.073 5  24369446.462    24369437.225          38.000
        38.000  
 121346083.797 6  94555252.792 7  23091368.023    23091361.350          42.000
        50.000  
 131887331.226 6 102769351.659 5  25097339.305    25097330.117          41.000
        36.000  
 110984805.831 7  86481632.577 8  21119707.547    21119699.008          47.000
        55.000  
 125201530.629 4                  23462711.430                          32.000
                  23462708.758
 118192484.485 6  91927445.564 6  22141434.727    22141425.207          44.000
        43.000    22141432.875
 119771519.984 6  93155569.280 6  22405737.992    22405731.523          44.000
        42.000    22405738.020
 113343655.033 4  88156141.106 7  21195832.125    21195826.828          35.000
        46.000    21195831.328
 128294454.706 5  99784523.737 5  23958081.086    23958071.801          36.000
        37.000    23958081.699
 127562751.033 5  99399542.392 5  24274393.542    24274384.759          40.000
        38.000  
 108855810.223 7  84822699.50745  20714581.932    20714571.398          47.000
        38.000  
 115601067.426 7  89911810.539 6  21633143.625    21633134.574          46.000
        43.000    21633142.828
 103814924.241 4  80744906.612 6  19407109.352    19407099.715          35.000
        45.000    19407107.148
 121054841.862 5  94153728.242 5  22661714.383    22661706.035          37.000
        36.000    22661714.293
 125346410.054 6  97491601.314 5  23514667.836    23514658.902          42.000
        38.000    23514666.453
 20  7  1 12  8 60.0000000  0 20G 1G22G 9G 8G16G 7G 3G31G 4R 6R18R 5
                                R20R 4G17G11R15R19R16R14
 106974417.871 7  83356746.212 8  20356579.855    20356572.659          50.000
        55.000  
 119242858.795 6  92916392.48044  22691146.964    22691135.887          44.000
        32.000  
 117026299.012 7  91189377.181 7  22269390.602    22269382.883          46.000
        50.000  
 121121131.761 6  94380120.980 7  23048600.654    23048594.232          41.000
        50.000  
 131526198.087 5 102488042.80041  25028638.117    25028629.457          38.000
        19.000  
 128008266.037 5  99746685.385 5  24359168.892    24359160.182          38.000
        38.000  
 121335939.114 6  94547347.842 7  23089437.625    23089431.362          42.000
        50.000  
 131926802.653 6 102800108.593 5  25104850.031    25104841.020          41.000
        37.000  
 111000777.979 7  86494078.399 8  21122747.375    21122738.250          47.000
        55.000  
 125203110.889 4                  23463006.836                          32.000
                  23463004.750
 118253809.163 6  91975142.495 6  22152922.273    22152914.395          45.000
        43.000    22152921.711
 119792063.855 6  93171547.864 6  22409581.500    22409574.680          43.000
        43.000    22409581.176
 113299673.772 5  88121933.438 7  21187608.578    21187602.344          36.000
        46.000    21187606.844
 128317311.546 4  99802301.249 5  23962348.828    23962340.012          33.000
        36.000    23962348.621
 127537094.517 6  99379550.295 5  24269511.112    24269502.798          41.000
        39.000  
 108874091.007 7  84836944.27045  20718060.393    20718049.800          46.000
        38.000  
 115580005.951 7  89895429.377 6  21629202.297    21629193.246          46.000
        43.000    21629201.973
 103836814.178 4  80761932.129 7  19411200.617    19411192.035          35.000
        46.000    19411199.586
 121010714.317 5  94119406.781 4  22653454.555    22653445.035          37.000
        35.000    22653453.055
 125361370.245 6  97503237.001 5  23517473.438    23517466.617          42.000
        39.000    23517473.699
 20  7  1 12  9 15.0000000  0 20G 1G22G 9G 8G16G 7G 3G31G 4R 6R18R 5
                                R20R 4G17G11R15R19R16R14
 106955522.150 7  83342022.278 8  20352983.879    20352976.389          50.000
        55.000  
 119235737.183 6  92910843.17044  22689792.792    22689780.777          45.000
        31.000  
 117016160.068 7  91181476.701 7  22267461.508    22267453.262          46.000
        50.000  
 121163335.791 6  94413007.231 7  23056632.436    23056626.423          43.000
        50.000  
 131525276.780 5 102487324.89841  25028463.414    25028455.164          37.000
        19.000  
 127954250.458 5  99704595.338 5  24348890.923    24348881.276          37.000
        38.000  
 121325756.138 6  94539413.059 7  23087499.680    23087493.651          43.000
        50.000  
 131966338.468 6 102830915.698 5  25112374.211    25112364.906          41.000
        37.000  
 111016830.651 7  86506586.973 8  21125801.570    21125792.563          47.000
        55.000  
 125204727.676 4                  23463309.680                          32.000
                  23463307.594
 118315187.683 6  92022881.335 6  22164419.648    22164410.832          44.000
        42.000    22164420.027
 119812572.063 6  93187498.699 6  22413417.758    22413411.172          43.000
        42.000    22413417.668
 113255836.696 5  88087837.950 7  21179410.734    21179404.266          36.000
        46.000    21179409.234
 128340089.416 4  99820017.330 5  23966601.008    23966593.012          35.000
        36.000    23966601.738
 127511543.495 6  99359640.389 5  24264649.050    24264640.735          41.000
        38.000  
 108892486.139 7  84851278.13745  20721561.471    20721549.999          46.000
        39.000  
 115559032.420 6  89879116.628 6  21625276.625    21625268.043          45.000
        43.000    21625275.945
 103858892.302 4  80779103.974 7  19415327.438    19415319.559          35.000
        46.000    19415326.055
 120966558.417 5  94085063.347 4  22645188.438    22645177.039          36.000
        35.000    22645186.820
 125376459.210 6  97514972.863 5  23520304.781    23520295.730          43.000
        39.000    23520303.516
 20  7  1 12  9 30.0000000  0 20G 1G22G 9G 8G16G 7G 3G31G 4R 6R18R 5
                                R20R 4G17G11R15R19R16R14
 106936751.301 7  83327395.624 8  20349411.629    20349404.725          48.000
        55.000  
 119228607.826 6  92905287.81944  22688436.050    22688423.977          44.000
        31.000  
 117006116.367 7  91173650.411 8  22265550.023    22265541.895          46.000
        55.000  
 121205529.667 6  94445885.591 7  23064661.256    23064655.126          42.000
        50.000  
 131524321.773 5 102486580.71341  25028282.117    25028272.578          37.000
        18.000  
 127900223.841 5  99662496.677 5  24338610.400    24338599.932          37.000
        37.000  
 121315534.324 6  94531447.986 7  23085555.008    23085548.159          43.000
        50.000  
 132005937.626 5 102861772.174 5  25119909.219    25119900.500          40.000
        38.000  
 111032962.948 7  86519157.585 8  21128871.234    21128862.109          46.000
        55.000  
 125206379.630 4                  23463617.375                          32.000
                  23463617.168
 118376618.354 6  92070660.770 6  22175928.125    22175920.363          44.000
        41.000    22175928.270
 119833043.672 6  93203421.038 6  22417247.594    22417240.773          42.000
        42.000    22417247.973
 113212143.612 5  88053854.398 7  21171238.359    21171233.414          36.000
        46.000    21171237.445
 128362787.806 4  99837671.698 5  23970837.203    23970834.254          31.000
        38.000    23970839.457
 127486097.910 5  99339812.621 5  24259806.245    24259798.048          40.000
        38.000  
 108910994.718 7  84865700.39545  20725083.565    20725072.151          47.000
        38.000  
 115538146.438 6  89862871.951 6  21621369.266    21621360.684          45.000
        44.000    21621369.176
 103881157.557 5  80796421.436 6  19419490.188    19419481.488          36.000
        45.000    19419488.570
 120922374.373 5  94050697.945 5  22636916.609    22636906.738          36.000
        37.000    22636915.813
 125391676.229 6  97526808.317 5  23523158.734    23523151.211          43.000
        40.000    23523158.762
 20  7  1 12  9 45.0000000  0 20G 1G22G 9G 8G16G 7G 3G31G 4R 6R18R 5
                                R20R 4G17G11R15R19R16R14
 106918105.760 7  83312866.638 8  20345863.457    20345856.319          48.000
        55.000  
 119221471.236 7  92899726.85444  22687078.260    22687065.601          46.000
        31.000  
 116996167.964 7  91165898.396 7  22263656.523    22263648.863          46.000
        50.000  
 121247713.482 6  94478756.076 7  23072688.678    23072681.962          42.000
        50.000  
 131523333.657 5 102485810.73141  25028093.445    25028084.023          37.000
        16.000  
 127846186.644 5  99620389.789 5  24328326.845    24328316.963          38.000
        37.000  
 121305273.935 6  94523452.878 7  23083601.844    23083596.049          43.000
        50.000  
 132045600.348 5 102892678.150 5  25127456.070    25127448.113          40.000
        37.000  
 111049174.707 7  86531790.117 8  21131956.102    21131947.094          46.000
        55.000  
 125208066.635 4                  23463936.234                          35.000
                  23463934.852
 118438101.387 6  92118480.910 6  22187446.055    22187438.648          43.000
        42.000    22187445.492
 119853478.572 6  93219314.806 5  22421070.328    22421061.629          43.000
        40.000    22421069.766
 113168595.181 5  88019983.380 7  21163095.117    21163089.703          36.000
        46.000    21163094.320
 128385406.929 4  99855264.286 5  23975062.117    23975056.938          32.000
        38.000    23975062.262
 127460757.913 6  99320067.156 5  24254984.362    24254975.344          41.000
        37.000  
 108929616.828 7  84880211.13445  20728626.924    20728615.804          47.000
        38.000  
 115517348.640 6  89846695.890 6  21617476.633    21617468.520          45.000
        44.000    21617475.836
 103903609.732 5  80813884.247 7  19423688.305    19423678.551          36.000
        46.000    19423686.805
 120878162.552 5  94016311.022 5  22628639.898    22628631.082          36.000
        36.000    22628638.750
 125407021.671 6  97538743.644 6  23526038.359    23526029.895          43.000
        41.000    23526037.680
 20  7  1 12  9 60.0000000  0 20G 1G22G 9G 8G16G 7G 3G31G 4R 6R18R 5
                                R20R 4G17G11R15R19R16R14
 106899585.915 7  83298435.582 8  20342339.809    20342331.968          49.000
        55.000  
 119214327.639 6  92894160.41144  22685718.026    22685705.836          45.000
        31.000  
 116986314.825 6  91158220.620 8  22261780.805    22261774.023          44.000
        55.000  
 121289886.778 6  94511618.371 6  23080714.303    23080706.708          43.000
        45.000  
 131522312.651 5 102485015.06441  25027900.000    25027889.758          38.000
        16.000  
 127792139.202 5  99578274.907 5  24318042.853    24318032.502          39.000
        37.000  
 121294975.084 6  94515427.813 7  23081641.961    23081636.108          41.000
        50.000  
 132085326.426 6 102923633.510 5  25135017.461    25135007.746          41.000
        38.000  
 111065465.717 7  86544484.407 8  21135056.469    21135047.637          47.000
        55.000  
 125209788.738 4                  23464258.328                          35.000
                  23464256.008
 118499636.123 6  92166341.248 6  22198973.070    22198965.074          43.000
        42.000    22198972.508
 119873876.575 6  93235179.896 5  22424886.641    22424876.770          42.000
        40.000    22424885.609
 113125192.057 5  87986225.376 7  21154980.078    21154973.141          36.000
        46.000    21154977.055
 128407946.579 4  99872795.172 5  23979271.680    23979265.914          32.000
        37.000    23979273.230
 127435523.608 5  99300404.057 5  24250183.026    24250174.126          40.000
        37.000  
 108948352.432 7  84894810.30445  20732191.916    20732181.323          47.000
        38.000  
 115496639.511 7  89830588.778 6  21613600.445    21613593.625          46.000
        45.000    21613600.941
 103926248.705 5  80831492.318 7  19427919.172    19427910.473          36.000
        46.000    19427919.199
 120833923.579 5  93981902.932 5  22620358.102    22620348.582          36.000
        37.000    22620357.656
 125422495.641 6  97550778.930 6  23528941.313    23528933.668          42.000
        42.000    23528941.223
 20  7  1 12 10 15.0000000  0 20G 1G22G 9G 8G16G 7G 3G31G 4R 6R18R 5
                                R20R 4G17G11R15R19R16R14
 106881192.231 7  83284102.837 8  20338839.699    20338832.151          49.000
        55.000  
 119207177.277 6  92888588.71044  22684357.956    22684345.590          45.000
        31.000  
 116976557.015 6  91150617.138 8  22259923.570    22259917.551          44.000
        55.000  
 121332049.366 6  94544472.321 6  23088737.162    23088730.036          42.000
        45.000  
 131521259.068 4 102484194.06241  25027698.703    25027689.281          35.000
        17.000  
 127738082.037 5  99536152.459 5  24307755.197    24307745.139          39.000
        36.000  
 121284638.104 6  94507373.002 7  23079676.336    23079669.897          43.000
        50.000  
 132125115.718 5 102954638.152 5  25142588.891    25142580.230          40.000
        39.000  
 111081835.898 7  86557240.381 8  21138171.531    21138162.582          47.000
        55.000  
 125211545.734 4                  23464586.313                          34.000
                  23464587.160
 118561222.062 6  92214241.384 6  22210510.438    22210502.793          42.000
        41.000    22210510.934
 119894237.484 6  93251016.135 6  22428695.539    22428688.367          43.000
        41.000    22428695.566
 113081934.723 5  87952580.778 7  21146889.086    21146883.320          36.000
        46.000    21146887.234
 128430407.315 4  99890264.598 5  23983466.016    23983460.953          31.000
        38.000    23983464.867
 127410395.117 5  99280823.385 5  24245400.042    24245391.903          40.000
        36.000  
 108967201.465 7  84909497.86045  20735778.416    20735767.999          47.000
        38.000  
 115476019.888 6  89814551.294 6  21609742.008    21609735.188          45.000
        45.000    21609741.684
 103949074.302 5  80849245.579 6  19432187.070    19432177.668          36.000
        45.000    19432185.102
 120789658.274 5  93947474.338 5  22612073.148    22612060.461          36.000
        37.000    22612071.180
 125438098.346 6  97562914.351 6  23531867.039    23531860.570          43.000
        42.000    23531867.301
 20  7  1 12 10 30.0000000  0 20G 1G22G 9G 8G16G 7G 3G31G 4R 6R18R 5
                                R20R 4G17G11R15R19R16R14
 106862924.731 7  83269868.427 8  20335363.559    20335356.421          49.000
        55.000  
 119200020.202 6  92883011.76644  22682996.065    22682983.524          45.000
        31.000  
 116966894.108 6  91143087.583 8  22258086.023    22258079.008          44.000
        55.000  
 121374200.764 6  94577317.553 7  23096759.350    23096752.165          43.000
        50.000  
 131520173.101 5 102483347.87741  25027492.883    25027482.641          36.000
        17.000  
 127684015.279 5  99494022.509 5  24297466.962    24297456.026          39.000
        36.000  
 121274262.756 6  94499288.313 7  23077701.586    23077695.323          42.000
        50.000  
 132164967.750 5 102985691.699 5  25150171.891    25150163.289          38.000
        39.000  
 111098284.687 7  86570057.608 8  21141302.180    21141292.938          47.000
        55.000  
 125213336.919 4                  23464922.523                          34.000
                  23464922.316
 118622858.651 6  92262180.915 5  22222058.055    22222047.008          43.000
        40.000    22222056.203
 119914560.960 6  93266823.294 6  22432496.938    22432490.000          42.000
        42.000    22432496.258
 113038823.355 4  87919049.731 7  21138826.953    21138821.891          35.000
        47.000    21138825.336
 128452788.459 4  99907672.221 5  23987648.156    23987638.168          35.000
        36.000    23987647.125
 127385372.079 5  99261324.898 4  24240638.667    24240630.001          40.000
        35.000  
 108986163.462 7  84924273.42645  20739387.057    20739376.347          47.000
        38.000  
 115455489.888 7  89798583.505 6  21605900.273    21605891.691          46.000
        45.000    21605900.066
 103972085.801 5  80867143.382 7  19436488.219    19436479.402          36.000
        46.000    19436486.484
 120745366.356 5  93913025.099 5  22603780.898    22603771.027          36.000
        38.000    22603780.453
 125453829.507 6  97575149.663 6  23534817.555    23534811.203          42.000
        42.000    23534817.465
 20  7  1 12 10 45.0000000  0 20G 1G22G 9G 8G16G 7G 3G31G 4R 6R18R 5
                                R20R 4G17G11R15R19R16R14
 106844783.902 7  83255732.709 8  20331911.074    20331904.346          49.000
        55.000  
 119192856.769 6  92877429.86844  22681632.628    22681620.379          45.000
        31.000  
 116957326.249 6  91135632.105 7  22256265.367    22256257.883          44.000
        50.000  
 121416340.856 6  94610153.994 7  23104778.092    23104771.201          43.000
        50.000  
 131519054.909 5 102482476.48841  25027278.906    25027270.832          36.000
        19.000  
 127629939.422 5  99451885.498 4  24287176.736    24287165.506          39.000
        35.000  
 121263849.401 6  94491174.022 7  23075719.680    23075713.006          44.000
        50.000  
 132204882.585 6 103016794.169 5  25157767.883    25157758.637          41.000
        39.000  
 111114811.960 7  86582936.013 8  21144446.617    21144437.727          46.000
        55.000  
 125215161.798 4                  23465266.438                          33.000
                  23465264.234
 118684545.266 6  92310159.406 5  22233612.617    22233604.387          41.000
        40.000    22233611.820
 119934846.700 6  93282601.089 6  22436292.109    22436286.695          43.000
        42.000    22436291.195
 112995858.618 5  87885632.731 7  21130792.695    21130786.695          37.000
        46.000    21130790.492
 128475090.456 4  99925018.153 5  23991806.672    23991803.605          31.000
        37.000    23991806.699
 127360455.199 6  99241909.145 5  24235898.268    24235888.958          41.000
        37.000  
 109005238.475 7  84939137.05145  20743017.033    20743006.733          47.000
        38.000  
 115435050.081 6  89782685.886 6  21602075.008    21602066.777          45.000
        44.000    21602075.152
 103995283.369 4  80885185.934 6  19440824.086    19440816.090          35.000
        45.000    19440823.289
 120701048.458 5  93878555.625 5  22595485.078    22595473.563          37.000
        37.000    22595483.930
 125469689.390 6  97587485.158 6  23537793.602    23537787.133          43.000
        42.000    23537792.570
 20  7  1 12 10 60.0000000  0 20G 1G22G 9G 8G16G 7G 3G31G 4R 6R18R 5
                                R20R 4G17G11R15R19R16R14
 106826769.410 7  83241695.437 8  20328482.816    20328475.971          49.000
        55.000  
 119185686.527 6  92871842.67144  22680268.425    22680256.000          45.000
        31.000  
 116947852.657 6  91128250.082 7  22254462.867    22254455.266          45.000
        50.000  
 121458468.937 6  94642981.041 7  23112793.873    23112787.743          43.000
        50.000  
 131517904.136 5 102481579.72841  25027061.164    25027051.449          37.000
        16.000  
 127575854.166 5  99409741.162 4  24276884.509    24276874.100          38.000
        35.000  
 121253397.457 6  94483029.659 7  23073731.023    23073724.292          43.000
        50.000  
 132244859.379 6 103047944.907 5  25165375.375    25165366.773          41.000
        39.000  
 111131416.813 7  86595874.843 8  21147606.906    21147598.016          47.000
        55.000  
 125217020.099 4                  23465612.898                          32.000
                  23465609.992
 118746281.005 6  92358176.072 5  22245178.344    22245169.879          41.000
        40.000    22245177.664
 119955093.954 6  93298348.921 6  22440078.859    22440072.859          42.000
        43.000    22440078.297
 112953040.375 5  87852329.616 7  21122784.867    21122780.391          36.000
        46.000    21122783.953
 128497312.628 4  99942302.102 5  23995960.680    23995953.859          35.000
        37.000    23995961.176
 127335643.912 6  99222575.660 5  24231177.073    24231168.407          41.000
        37.000  
 109024425.660 7  84954088.10245  20746668.979    20746658.093          48.000
        39.000  
 115414700.395 7  89766858.343 6  21598267.180    21598258.949          46.000
        44.000    21598267.324
 104018665.768 5  80903372.215 7  19445195.758    19445187.059          36.000
        46.000    19445194.727
 120656704.420 5  93844065.847 5  22587182.383    22587174.152          37.000
        37.000    22587181.820
 125485677.735 6  97599920.502 5  23540794.164    23540784.879          44.000
        40.000    23540793.016
 20  7  1 12 11 15.0000000  0 20G 1G22G 9G 8G16G 7G 3G31G 4R 6R18R 5
                                R20R 4G17G11R15R19R16R14
 106808882.389 7  83227757.492 8  20325079.519    20325072.382          49.000
        55.000  
 119178510.434 6  92866250.92143  22678901.565    22678890.196          43.000
        30.000  
 116938474.087 6  91120942.071 7  22252678.070    22252670.527          45.000
        50.000  
 121500585.235 6  94675798.927 6  23120809.045    23120801.685          43.000
        45.000  
 131516721.792 4 102480658.4274   25026835.273    25026826.555          35.000
        14.000  
 127521760.554 5  99367590.300 5  24266591.314    24266580.553          40.000
        36.000  
 121242907.914 6  94474855.987 7  23071733.765    23071727.796          42.000
        50.000  
 132284898.640 5 103079144.315 5  25172994.414    25172986.223          40.000
        39.000  
 111148099.798 7  86608874.564 8  21150781.258    21150772.191          46.000
        55.000  
 125218912.327 4                  23465966.625                          32.000
                  23465965.125
 118808065.901 6  92406230.941 6  22256752.273    22256744.395          41.000
        42.000    22256751.828
 119975303.176 6  93314067.220 6  22443860.320    22443851.855          43.000
        42.000    22443859.289
 112910369.835 5  87819141.449 6  21114805.813    21114799.813          36.000
        45.000    21114804.547
 128519455.873 4  99959524.618 5  24000095.773    24000088.602          35.000
        36.000    24000094.742
 127310939.057 6  99203325.132 5  24226476.378    24226466.774          43.000
        37.000  
 109043725.817 7  84969127.18645  20750340.822    20750330.405          47.000
        39.000  
 115394442.115 7  89751101.894 6  21594476.766    21594468.066          46.000
        45.000    21594475.500
 104042233.453 4  80921702.630 6  19449602.039    19449592.988          35.000
        45.000    19449599.836
 120612335.639 5  93809556.821 5  22578877.023    22578867.504          36.000
        38.000    22578875.055
 125501795.098 6  97612456.244 5  23543816.945    23543808.246          44.000
        40.000    23543817.441
 20  7  1 12 11 30.0000000  0 20G 1G22G 9G 8G16G 7G 3G31G 4R 6R18R 5
                                R20R 4G17G11R15R19R16R14
 106791122.908 7  83213918.932 8  20321700.168    20321692.737          49.000
        55.000  
 119171328.505 6  92860654.60743  22677535.479    22677523.817          45.000
        30.000  
 116929190.137 6  91113707.815 8  22250910.781    22250903.707          44.000
        55.000  
 121542689.174 6  94708607.195 6  23128820.787    23128814.892          42.000
        45.000  
 131515508.026 4 102479712.5404   25026604.883    25026595.109          34.000
        14.000  
 127467658.785 5  99325433.067 5  24256295.064    24256285.709          39.000
        36.000  
 121232380.569 6  94466652.863 7  23069731.594    23069724.569          42.000
        50.000  
 132324999.971 5 103110392.119 5  25180625.500    25180617.777          40.000
        38.000  
 111164860.382 7  86621934.762 8  21153970.789    21153962.074          47.000
        55.000  
 125220837.167 4                  23466329.633                          35.000
                  23466327.547
 118869899.336 6  92454323.604 6  22268335.953    22268327.840          42.000
        42.000    22268335.391
 119995474.066 6  93329755.654 6  22447633.820    22447625.004          44.000
        41.000    22447634.434
 112867847.156 5  87786068.197 7  21106853.953    21106848.891          36.000
        46.000    21106853.863
 128541519.796 4  99976685.459 5  24004216.844    24004211.313          34.000
        39.000    24004216.754
 127286340.490 6  99184157.401 5  24221794.354    24221785.805          41.000
        37.000  
 109063138.419 7  84984253.87545  20754034.994    20754024.050          47.000
        38.000  
 115374275.415 7  89735416.658 6  21590702.813    21590695.051          46.000
        45.000    21590701.781
 104065986.075 5  80940176.917 6  19454041.984    19454033.168          36.000
        45.000    19454040.133
 120567942.221 5  93775028.633 5  22570566.172    22570557.238          36.000
        38.000    22570564.438
 125518041.478 6  97625092.332 5  23546864.695    23546855.879          43.000
        40.000    23546864.488
 20  7  1 12 11 45.0000000  0 20G 1G22G 9G 8G16G 7G 3G31G 4R 6R18R 5
                                R20R 4G17G11R15R19R16R14
 106773491.377 7  83200180.074 8  20318344.699    20318337.680          50.000
        55.000  
 119164141.058 6  92855053.98944  22676167.964    22676156.594          45.000
        31.000  
 116920000.876 6  91106547.353 7  22249162.117    22249155.277          44.000
        50.000  
 121584780.817 6  94741405.861 7  23136830.475    23136824.638          41.000
        50.000  
 131514263.076 4 102478742.43741  25026367.594    25026359.051          35.000
        16.000  
 127413549.316 5  99283269.852 5  24245998.720    24245988.897          40.000
        36.000  
 121221815.709 6  94458420.487 7  23067719.898    23067713.342          43.000
        50.000  
 132365163.342 5 103141688.243 5  25188267.664    25188260.234          39.000
        38.000  
 111181698.445 7  86635055.330 8  21157174.445    21157166.199          47.000
        55.000  
 125222795.052 4                  23466694.164                          33.000
                  23466692.898
 118931780.995 6  92502453.775 6  22279927.742    22279919.277          42.000
        42.000    22279927.535
 120015606.376 6  93345414.040 6  22451400.891    22451392.426          44.000
        42.000    22451400.566
 112825472.905 5  87753110.538 6  21098929.516    21098923.750          36.000
        45.000    21098927.898
 128563504.625 5  99993784.779 5  24008325.289    24008315.184          37.000
        37.000    24008324.844
 127261848.310 6  99165072.590 5  24217134.151    24217125.134          41.000
        37.000  
 109082663.472 7  84999468.20245  20757749.971    20757739.437          47.000
        38.000  
 115354201.043 7  89719803.244 6  21586945.602    21586938.898          46.000
        45.000    21586945.746
 104089923.522 4  80958794.936 6  19458517.445    19458507.574          35.000
        45.000    19458514.891
 120523524.712 5  93740481.635 5  22562251.547    22562241.676          37.000
        38.000    22562250.164
 125534417.177 6  97637828.904 5  23549935.484    23549927.605          42.000
        40.000    23549936.098
 20  7  1 12 11 60.0000000  0 20G 1G22G 9G 8G16G 7G 3G31G 4R 6R18R 5
                                R20R 4G17G11R15R19R16R14
 106755987.889 7  83186540.980 8  20315014.098    20315006.258          50.000
        55.000  
 119156948.076 6  92849449.05244  22674799.386    22674787.840          45.000
        31.000  
 116910905.943 6  91099460.378 8  22247431.969    22247424.719          45.000
        55.000  
 121626859.604 6  94774194.527 6  23144839.233    23144831.462          41.000
        45.000  
 131512986.911 4 102477748.0424   25026125.406    25026116.395          34.000
        14.000  
 127359432.237 5  99241100.721 5  24235700.095    24235690.799          39.000
        36.000  
 121211213.237 6  94450158.828 7  23065702.844    23065696.522          42.000
        50.000  
 132405388.217 5 103173032.279 5  25195922.102    25195914.672          37.000
        38.000  
 111198613.455 7  86648235.846 8  21160393.844    21160384.719          47.000
        55.000  
 125224784.894 4                  23467066.547                          32.000
                  23467066.102
 118993709.983 6  92550620.716 6  22291530.961    22291521.910          43.000
        42.000    22291529.695
 120035699.663 6  93361042.141 6  22455160.539    22455151.137          45.000
        42.000    22455160.566
 112783247.473 5  87720268.481 7  21091032.281    21091028.395          36.000
        46.000    21091032.426
 128585410.128 4 100010822.397 5  24012412.789    24012405.969          33.000
        36.000    24012412.582
 127237462.486 6  99146070.618 5  24212494.042    24212485.317          41.000
        39.000  
 109102300.605 7  85014769.86745  20761487.971    20761476.499          47.000
        38.000  
 115334219.241 7  89704261.825 6  21583206.398    21583198.992          46.000
        44.000    21583205.719
 104114045.168 5  80977556.188 6  19463026.172    19463017.238          36.000
        45.000    19463023.734
 120479083.421 5  93705916.251 5  22553930.953    22553922.254          37.000
        38.000    22553930.039
 125550921.809 6  97650665.780 6  23553031.758    23553026.109          41.000
        41.000    23553031.434
 20  7  1 12 12 15.0000000  0 20G 1G22G 9G 8G16G 7G 3G31G 4R 6R18R 5
                                R20R 4G17G11R15R19R16R14
 106738612.580 7  83173001.781 8  20311707.394    20311700.375          49.000
        55.000  
 119149749.680 6  92843839.91144  22673429.051    22673417.328          45.000
        31.000  
 116901905.140 7  91092446.759 8  22245719.555    22245711.426          46.000
        55.000  
 121668925.089 5  94806972.811 7  23152843.506    23152836.790          40.000
        50.000  
 131511679.712 4 102476729.40941  25025875.836    25025867.879          35.000
        17.000  
 127305307.823 5  99198925.875 5  24225401.486    24225391.663          40.000
        37.000  
 121200573.137 6  94441867.842 7  23063677.773    23063670.749          43.000
        50.000  
 132445674.318 4 103204424.054 5  25203587.297    25203581.332          33.000
        37.000  
 111215605.026 7  86661476.033 8  21163627.242    21163617.590          47.000
        55.000  
 125226806.915 4                  23467447.969                          33.000
                  23467445.531
 119055685.784 6  92598824.146 6  22303139.914    22303131.098          41.000
        42.000    22303138.531
 120055753.606 6  93376639.612 6  22458909.992    22458903.289          44.000
        42.000    22458909.785
 112741171.019 5  87687542.361 6  21083164.539    21083158.656          36.000
        45.000    21083164.566
 128607236.377 4 100027798.313 5  24016489.250    24016481.727          34.000
        36.000    24016489.043
 127213182.772 5  99127151.356 5  24207872.956    24207864.817          40.000
        38.000  
 109122049.381 7  85030158.52245  20765245.713    20765235.180          47.000
        39.000  
 115314330.195 6  89688792.584 6  21579483.617    21579476.445          45.000
        44.000    21579482.469
 104138350.424 5  80996460.262 6  19467569.227    19467561.230          36.000
        45.000    19467567.609
 120434618.787 5  93671332.632 5  22545606.820    22545598.121          39.000
        38.000    22545606.375
 125567555.285 6  97663602.975 6  23556152.523    23556146.641          42.000
        42.000    23556151.844
 20  7  1 12 12 30.0000000  0 20G 1G22G 9G 8G16G 7G 3G31G 4R 6R18R 5
                                R20R 4G17G11R15R19R16R14
 106721366.177 7  83159563.033 8  20308425.746    20308418.140          50.000
        55.000  
 119142546.360 6  92838226.93943  22672058.347    22672047.621          45.000
        30.000  
 116892998.696 7  91085506.648 8  22244024.438    22244017.129          46.000
        55.000  
 121710977.474 6  94839740.872 7  23160846.319    23160839.603          42.000
        50.000  
 131510342.175 4 102475687.1124   25025621.695    25025613.152          34.000
        15.000  
 127251176.769 6  99156745.844 5  24215100.001    24215090.881          41.000
        37.000  
 121189895.919 6  94433547.896 7  23061646.375    23061639.467          43.000
        50.000  
 132486021.936 4 103235863.747 5  25211265.297    25211259.156          32.000
        37.000  
 111232673.260 7  86674775.959 8  21166875.219    21166866.328          47.000
        55.000  
 125228860.841 4                  23467831.773                          35.000
                  23467831.328
 119117708.261 6  92647063.794 6  22314758.367    22314750.488          43.000
        42.000    22314757.805
 120075768.171 6  93392206.508 6  22462654.766    22462646.887          44.000
        42.000    22462654.676
 112699244.473 5  87654932.852 7  21075323.117    21075318.406          36.000
        46.000    21075322.793
 128628983.589 4 100044712.850 5  24020549.844    24020544.898          32.000
        36.000    24020549.988
 127189009.974 5  99108315.341 5  24203272.808    24203264.201          39.000
        37.000  
 109141910.106 7  85045634.40245  20769024.729    20769014.606          47.000
        39.000  
 115294534.840 6  89673396.195 6  21575778.492    21575772.727          45.000
        45.000    21575778.520
 104162839.194 5  81015507.100 7  19472147.398    19472139.754          36.000
        46.000    19472146.602
 120390131.222 5  93636731.218 5  22537279.695    22537270.059          38.000
        37.000    22537279.016
 125584318.265 6  97676640.874 6  23559299.727    23559292.082          42.000
        42.000    23559299.164
 20  7  1 12 12 45.0000000  0 20G 1G22G 9G 8G16G 7G 3G31G 4R 6R18R 5
                                R20R 4G17G11R15R19R16R14
 106704248.581 7  83146224.641 8  20305168.355    20305161.160          49.000
        55.000  
 119135338.034 6  92832610.06744  22670686.246    22670675.051          44.000
        31.000  
 116884186.180 6  91078639.752 7  22242346.711    22242339.695          44.000
        50.000  
 121753015.781 6  94872497.995 7  23168845.811    23168839.329          41.000
        50.000  
 131508974.101 4 102474621.10541  25025360.172    25025353.152          33.000
        16.000  
 127197039.105 5  99114560.652 5  24204797.423    24204788.713          40.000
        37.000  
 121179181.298 6  94425198.869 7  23059607.117    23059600.385          43.000
        50.000  
 132526430.336 4 103267350.761 5  25218953.656    25218948.750          31.000
        36.000  
 111249817.484 7  86688135.084 8  21170138.031    21170128.555          48.000
        55.000  
 125230946.058 4                  23468220.945                          31.000
                  23468219.094
 119179776.498 6  92695339.083 6  22326386.320    22326377.855          43.000
        43.000    22326385.641
 120095742.874 6  93407742.411 6  22466390.313    22466383.492          43.000
        42.000    22466389.047
 112657467.930 5  87622439.954 6  21067511.664    21067505.781          36.000
        45.000    21067510.164
 128650651.409 4 100061565.537 5  24024596.688    24024591.273          31.000
        36.000    24024595.188
 127164943.634 5  99089562.347 5  24198693.870    24198684.912          39.000
        38.000  
 109161882.323 7  85061197.16745  20772825.432    20772814.899          47.000
        39.000  
 115274833.356 7  89658072.819 6  21572092.148    21572085.797          46.000
        44.000    21572092.996
 104187511.209 5  81034696.413 6  19476760.094    19476750.457          36.000
        45.000    19476758.594
 120345621.014 5  93602112.163 5  22528948.234    22528937.305          39.000
        38.000    22528946.734
 125601210.460 6  97689779.212 6  23562468.430    23562460.082          41.000
        41.000    23562466.461
 20  7  1 12 12 60.0000000  0 20G 1G22G 9G 8G16G 7G 3G31G 4R 6R18R 5
                                R20R 4G17G11R15R19R16R14
 106687259.750 7  83132986.587 8  20301935.496    20301928.242          49.000
        55.000  
 119128124.637 6  92826989.23744  22669315.027    22669302.368          45.000
        31.000  
 116875467.065 6  91071845.621 7  22240687.992    22240680.215          45.000
        50.000  
 121795039.444 5  94905243.698 7  23176841.944    23176835.345          40.000
        50.000  
 131507575.333 4 102473531.1154   25025096.391    25025086.559          34.000
        15.000  
 127142894.822 5  99072370.302 5  24194494.439    24194485.612          40.000
        37.000  
 121168429.045 6  94416820.472 7  23057560.898    23057553.522          43.000
        50.000  
 132566899.040 4 103298884.849 4  25226656.914    25226648.313          32.000
        35.000  
 111267037.104 7  86701552.958 8  21173414.195    21173404.719          47.000
        55.000  
 125233061.732 4                  23468616.727                          31.000
                  23468616.637
 119241889.711 6  92743649.312 6  22338022.125    22338014.129          43.000
        43.000    22338021.094
 120115677.094 6  93423246.832 6  22470120.695    22470112.699          44.000
        42.000    22470119.313
 112615841.431 5  87590063.790 6  21059726.844    21059720.961          36.000
        45.000    21059726.281
 128672239.646 3 100078356.365 4  24028630.008    24028620.605          30.000
        34.000    24028628.742
 127140983.576 5  99070892.233 5  24194133.136    24194125.525          38.000
        38.000  
 109181965.356 7  85076846.27145  20776647.338    20776636.688          48.000
        39.000  
 115255225.774 7  89642822.485 6  21568422.766    21568415.711          46.000
        44.000    21568422.203
 104212365.501 5  81054027.550 7  19481407.273    19481397.637          36.000
        46.000    19481404.250
 120301088.096 5  93567475.501 5  22520611.289    22520601.770          40.000
        38.000    22520609.438
 125618231.616 6  97703017.847 6  23565661.141    23565654.203          41.000
        41.000    23565660.816
 20  7  1 12 13 15.0000000  0 20G 1G22G 9G 8G16G 7G 3G31G 4R 6R18R 5
                                R20R 4G17G11R15R19R16R14
 106670400.024 7  83119849.136 8  20298727.512    20298719.730          48.000
        55.000  
 119120906.221 7  92821364.49144  22667940.980    22667929.024          46.000
        31.000  
 116866841.367 6  91065124.279 7  22239046.758    22239038.629          45.000
        50.000  
 121837048.499 6  94937978.002 7  23184836.350    23184829.283          42.000
        50.000  
 131506146.351 4 102472417.6094   25024824.406    25024815.043          35.000
        15.000  
 127088744.200 5  99030175.022 5  24184189.579    24184181.573          40.000
        36.000  
 121157639.376 6  94408412.935 7  23055508.953    23055501.049          44.000
        50.000  
 132607427.935 4 103330465.784 4  25234370.109    25234361.156          34.000
        35.000  
 111284331.873 7  86715029.392 8  21176705.617    21176696.375          47.000
        55.000  
 125235207.911 4                  23469020.805                          33.000
                  23469021.066
 119304047.357 6  92791994.140 6  22349665.953    22349659.016          42.000
        42.000    22349664.922
 120135570.637 6  93438719.544 6  22473842.563    22473834.801          44.000
        42.000    22473843.059
 112574365.570 5  87557804.816 7  21051972.406    21051965.352          37.000
        46.000    21051970.789
 128693748.34113 100095085.318 4  24032646.938    24032638.004          30.000
        33.000    24032646.023
 127117129.973 5  99052305.003 5  24189594.753    24189586.146          39.000
        36.000  
 109202159.284 7  85092581.79945  20780490.549    20780479.430          48.000
        39.000  
 115235712.616 6  89627645.583 6  21564771.727    21564764.203          45.000
        44.000    21564771.047
 104237401.860 5  81073500.268 7  19486085.438    19486077.207          36.000
        46.000    19486084.992
 120256533.235 5  93532821.705 5  22512270.141    22512259.918          40.000
        37.000    22512269.461
 125635381.565 5  97716356.677 6  23568876.125    23568871.414          40.000
        41.000    23568877.324
 20  7  1 12 13 30.0000000  0 20G 1G22G 9G 8G16G 7G 3G31G 4R 6R18R 5
                                R20R 4G17G11R15R19R16R14
 106653669.818 7  83106812.617 8  20295543.559    20295535.719          49.000
        55.000  
 119113683.198 6  92815736.15144  22666566.410    22666554.336          45.000
        31.000  
 116858309.058 6  91058475.713 7  22237422.672    22237414.953          45.000
        50.000  
 121879042.702 6  94970700.728 7  23192828.350    23192821.400          41.000
        50.000  
 131504687.278 5 102471280.6364   25024546.789    25024537.191          36.000
        15.000  
 127034587.898 5  98987975.300 5  24173884.072    24173875.713          40.000
        36.000  
 121146812.488 6  94399976.385 7  23053447.445    23053440.421          43.000
        50.000  
 132648016.859 4 103362093.477 5  25242093.688    25242084.793          34.000
        36.000  
 111301701.667 7  86728564.289 8  21180010.320    21180001.898          46.000
        55.000  
 125237384.041 4                  23469431.039                          33.000
                  23469429.305
 119366248.928 6  92840373.107 6  22361318.227    22361311.875          41.000
        42.000    22361318.020
 120155423.412 6  93454160.611 6  22477556.508    22477547.691          44.000
        42.000    22477556.063
 112533040.948 5  87525663.434 6  21044243.328    21044237.094          37.000
        45.000    21044241.945
 128715177.43613 100111752.552 3  24036646.203    24036640.086          28.000
        30.000    24036646.699
 127093382.902 5  99033800.797 4  24185075.815    24185067.267          38.000
        35.000  
 109222463.964 7  85108403.62745  20784353.713    20784343.121          48.000
        39.000  
 115216294.722 6  89612542.749 6  21561137.305    21561130.719          45.000
        44.000    21561136.508
 104262620.254 4  81093114.542 6  19490801.039    19490791.871          35.000
        45.000    19490799.539
 120211956.591 5  93498150.968 5  22503925.477    22503916.543          40.000
        38.000    22503924.211
 125652660.640 5  97729795.974 5  23572116.984    23572111.102          39.000
        40.000    23572116.539
 20  7  1 12 13 45.0000000  0 20G 1G22G 9G 8G16G 7G 3G31G 4R 6R18R 5
                                R20R 4G17G11R15R19R16R14
 106637069.480 7  83093877.291 8  20292384.738    20292376.722          49.000
        55.000  
 119106455.879 7  92810104.46944  22665192.129    22665179.645          46.000
        32.000  
 116849870.055 7  91051899.861 7  22235817.008    22235809.406          46.000
        50.000  
 121921021.871 6  95003411.767 7  23200816.100    23200809.618          42.000
        50.000  
 131503198.432 5 102470120.58541  25024262.953    25024254.352          36.000
        16.000  
 126980426.161 6  98945771.350 5  24163578.040    24163568.745          42.000
        36.000  
 121135948.561 6  94391510.981 7  23051380.258    23051372.881          44.000
        50.000  
 132688665.765 4 103393767.909 5  25249827.289    25249819.684          31.000
        36.000  
 111319146.209 7  86742157.448 8  21183329.563    21183321.961          46.000
        55.000  
 125239589.871 4                  23469841.930                          31.000
                  23469840.664
 119428494.205 6  92888786.105 6  22372979.922    22372971.223          42.000
        41.000    22372979.125
 120175235.243 6  93469569.781 6  22481262.563    22481253.746          45.000
        43.000    22481262.355
 112491867.588 5  87493639.695 6  21036544.141    21036538.258          36.000
        45.000    21036542.992
 128736527.33713 100128357.95513  24040634.797    24040625.863          27.000
        30.000    24040632.359
 127069742.445 5  99015379.657 5  24180576.870    24180568.322          39.000
        37.000  
 109242879.269 7  85124311.64945  20788239.229    20788227.582          47.000
        39.000  
 115196972.340 7  89597514.230 6  21557522.391    21557514.395          46.000
        44.000    21557521.477
 104288020.178 4  81112870.026 7  19495549.664    19495540.496          35.000
        46.000    19495546.992
 120167359.119 5  93463464.057 5  22495575.227    22495566.645          39.000
        37.000    22495575.488
 125670068.853 5  97743335.725 5  23575383.523    23575376.938          39.000
        40.000    23575383.078
 20  7  1 12 13 60.0000000  0 19G 1G22G 9G 8G16G 7G 3G31G 4R 6R18R 5
                                R20G17G11R15R19R16R14
 106620599.725 7  83081043.707 8  20289250.496    20289242.890          49.000
        55.000  
 119099224.906 6  92804469.94744  22663815.769    22663803.754          44.000
        31.000  
 116841524.712 6  91045396.987 8  22234228.906    22234221.890          44.000
        55.000  
 121962986.231 6  95036111.241 7  23208801.350    23208794.751          41.000
        50.000  
 131501680.537 4 102468937.69341  25023973.898    25023965.766          34.000
        16.000  
 126926259.783 6  98903563.775 5  24153270.712    24153261.241          42.000
        37.000  
 121125048.177 6  94383017.146 7  23049306.430    23049299.463          43.000
        50.000  
 132729374.706 4 103425489.089 4  25257573.352    25257566.684          32.000
        35.000  
 111336665.656 7  86755808.957 8  21186664.500    21186654.848          47.000
        55.000  
 125241825.685 4                  23470260.945                          31.000
                  23470259.797
 119490782.852 6  92937232.785 5  22384650.203    22384638.688          42.000
        40.000    22384648.234
 120195006.145 6  93484947.138 6  22484959.688    22484952.984          43.000
        43.000    22484959.598
 112450846.886 5  87461734.704 6  21028873.227    21028867.109          36.000
        45.000    21028872.547
 127046209.175 5  98997042.010 5  24176098.909    24176090.010          38.000
        36.000  
 109263405.507 7  85140306.11745  20792144.572    20792133.981          47.000
        38.000  
 115177746.425 7  89582560.743 6  21553924.398    21553917.227          46.000
        44.000    21553924.426
 104313601.492 5  81132766.631 7  19500330.875    19500321.941          36.000
        46.000    19500329.609
 120122741.518 5  93428761.479 5  22487224.328    22487214.926          39.000
        37.000    22487223.414
 125687607.014 5  97756976.459 5  23578674.195    23578668.547          39.000
        40.000    23578673.281
 20  7  1 12 14 15.0000000  0 20G 1G22G 9G 8G16G 7G 3G31G 4R 6R18R 5
                                R20R 4G17G11R15R19R16R14
 106604260.315 7  83068311.706 8  20286140.754    20286133.500          49.000
        55.000  
 119091989.817 6  92798832.21444  22662438.113    22662426.391          42.000
        31.000  
 116833272.353 6  91038966.583 7  22232658.859    22232651.608          44.000
        50.000  
 122004934.457 6  95068798.161 7  23216784.022    23216776.544          42.000
        50.000  
 131500133.378 4                  25023679.186                          34.000
                
 126872088.629 6  98861352.468 5  24142961.900    24142952.838          42.000
        36.000  
 121114110.840 6  94374494.565 7  23047225.414    23047219.268          44.000
        50.000  
 132770142.921 5 103457256.483 4  25265332.945    25265323.934          36.000
        34.000  
 111354259.204 7  86769518.210 8  21190012.578    21190003.453          48.000
        55.000  
 125244090.881 4                  23470684.258                          32.000
                  23470684.285
 119553113.991 6  92985712.551 5  22396326.664    22396316.910          42.000
        40.000    22396324.695
 120214735.435 6  93500292.134 6  22488651.133    22488644.547          43.000
        43.000    22488650.102
 112409978.297 5  87429948.060 6  21021229.234    21021224.055          36.000
        45.000    21021229.145
 128778989.787 4 100161384.283 4  24048560.930    24048556.809          31.000
        31.000    24048561.543
 127022782.859 5  98978787.704 4  24171642.456    24171632.033          38.000
        35.000  
 109284041.952 7  85156386.45545  20796071.908    20796061.258          47.000
        38.000  
 115158616.954 7  89567682.259 6  21550343.828    21550336.539          46.000
        44.000    21550343.383
 104339363.825 5  81152803.993 7  19505146.391    19505137.926          36.000
        46.000    19505145.477
 120078103.599 5  93394043.110 5  22478868.102    22478856.938          39.000
        36.000    22478866.602
 125705274.460 6  97770717.787 5  23581990.891    23581981.254          41.000
        38.000    23581989.391
 20  7  1 12 14 30.0000000  0 20G 1G22G 9G 8G16G 7G 3G31G 4R 6R18R 5
                                R20R 4G17G11R15R19R16R14
 106588051.497 7  83055681.449 8  20283056.465    20283048.976          48.000
        55.000  
 119084750.885 6  92793191.48043  22661060.074    22661049.172          41.000
        30.000  
 116825112.884 6  91032608.541 7  22231105.781    22231097.769          44.000
        50.000  
 122046866.765 6  95101472.675 7  23224763.303    23224756.822          43.000
        50.000  
 131498557.166 4                  25023377.248                          32.000
                
 126817912.987 6  98819137.673 5  24132652.204    24132643.612          41.000
        37.000  
 121103136.762 6  94365943.306 7  23045136.625    23045129.835          43.000
        50.000  
 132810970.211 5 103489069.957 5  25273103.445    25273093.438          38.000
        36.000  
 111371926.593 7  86783284.996 8  21193374.266    21193365.023          47.000
        55.000  
 125246384.518 4                  23471115.930                          34.000
                  23471115.133
 119615487.103 6  93034224.971 5  22408010.602    22408001.199          42.000
        40.000    22408009.922
 120234422.933 6  93515604.635 6  22492334.172    22492325.590          43.000
        42.000    22492333.023
 112369262.883 5  87398280.512 6  21013617.055    21013610.469          37.000
        45.000    21013615.555
 128800101.843 4 100177804.724 3  24052503.758    24052495.762          31.000
        29.000    24052503.902
 126999463.326 4  98960616.619 5  24167202.229    24167194.970          35.000
        36.000  
 109304788.425 7  85172552.53345  20800019.565    20800009.266          48.000
        38.000  
 115139584.320 6  89552879.077 6  21546783.227    21546775.703          45.000
        45.000    21546782.664
 104365306.372 5  81172981.494 7  19509996.734    19509988.152          36.000
        46.000    19509995.586
 120033445.932 5  93359309.398 4  22470507.602    22470497.496          39.000
        35.000    22470506.922
 125723071.155 5  97784559.698 5  23585328.016    23585318.145          40.000
        37.000    23585326.633
 20  7  1 12 14 45.0000000  0 20G 1G22G 9G 8G16G 7G 3G31G 4R 6R18R 5
                                R20R 4G17G11R15R19R16R14
 106571973.794 7  83043153.380 8  20279996.980    20279989.902          50.000
        55.000  
 119077508.480 6  92787548.03644  22659682.301    22659670.286          44.000
        31.000  
 116817046.329 7  91026322.905 7  22229571.063    22229563.519          46.000
        50.000  
 122088782.783 6  95134134.495 7  23232738.803    23232732.673          42.000
        50.000  
 131496952.190 4                  25023074.037                          33.000
                
 126763733.520 6  98776919.899 5  24122342.603    24122333.717          42.000
        37.000  
 121092126.156 6  94357363.602 7  23043042.226    23043034.674          43.000
        50.000  
 132851856.639 5 103520929.503 5  25280882.969    25280874.191          37.000
        36.000  
 111389667.637 7  86797109.190 8  21196750.188    21196740.711          47.000
        55.000  
 125248706.956 4                  23471550.109                          32.000
                  23471549.078
 119677901.459 6  93082769.442 5  22419703.563    22419692.988          41.000
        39.000    22419702.180
 120254068.675 6  93530884.609 6  22496010.141    22496001.676          44.000
        42.000    22496009.109
 112328700.676 5  87366732.126 6  21006030.891    21006025.008          38.000
        45.000    21006030.566
 128821134.712 3 100194163.536 3  24056431.531    24056425.766          30.000
        28.000    24056429.797
 126976250.902 5  98942529.026 4  24162785.917    24162778.131          37.000
        35.000  
 109325644.906 7  85188804.32545  20803988.729    20803977.902          48.000
        38.000  
 115120649.293 6  89538151.842 6  21543239.352    21543230.535          45.000
        44.000    21543238.203
 104391429.229 5  81193299.267 7  19514879.883    19514872.004          36.000
        46.000    19514878.969
 119988768.985 5  93324560.652 4  22462143.727    22462133.621          38.000
        34.000    22462143.047
 125740997.435 6  97798502.337 5  23588690.813    23588681.645          41.000
        37.000    23588690.016
 20  7  1 12 14 60.0000000  0 20G 1G22G 9G 8G16G 7G 3G31G 4R 6R18R 5
                                R20R 4G17G11R15R19R16R14
 106556026.693 7  83030727.066 8  20276962.348    20276955.387          49.000
        55.000  
 119070262.192 6  92781901.57844  22658303.551    22658291.184          44.000
        31.000  
 116809071.864 6  91020109.023 7  22228053.320    22228046.245          45.000
        50.000  
 122130681.859 6  95166783.093 7  23240711.959    23240706.708          43.000
        50.000  
 131495318.282 4                  25022763.842                          35.000
                
 126709549.695 6  98734698.730 5  24112031.931    24112022.811          42.000
        38.000  
 121081078.506 6  94348755.054 7  23040938.414    23040932.210          42.000
        50.000  
 132892801.226 5 103552834.375 4  25288674.609    25288665.656          39.000
        35.000  
 111407481.384 7  86810990.035 8  21200140.000    21200130.816          46.000
        55.000  
 125251056.937 4                  23471990.953                          32.000
                  23471990.039
 119740356.416 6  93131345.481 5  22431402.078    22431393.730          42.000
        40.000    22431402.105
 120273671.538 6  93546131.278 6  22499677.750    22499669.402          44.000
        43.000    22499676.719
 112288291.644 5  87335302.885 7  20998474.109    20998468.461          37.000
        46.000    20998473.195
 128842087.717 4 100210460.153 3  24060348.070    24060338.902          32.000
        26.000    24060346.805
 126953144.977 5  98924524.433 5  24158390.104    24158380.736          38.000
        36.000  
 109346610.553 7  85205141.18245  20807978.236    20807967.586          47.000
        38.000  
 115101811.538 7  89523500.270 6  21539715.039    21539705.402          46.000
        44.000    21539714.125
 104417731.242 5  81213756.371 7  19519796.500    19519788.738          36.000
        46.000    19519795.703
 119944072.749 5  93289796.897 4  22453775.836    22453767.488          37.000
        35.000    22453775.629
 125759052.479 6  97812545.152 5  23592078.000    23592070.004          41.000
        38.000    23592077.320
 20  7  1 12 15 15.0000000  0 20G 1G22G 9G 8G16G 7G 3G31G 4R 6R18R 5
                                R20R 4G17G11R15R19R16R14
 106540211.414 7  83018403.469 8  20273953.066    20273945.695          49.000
        55.000  
 119063013.160 6  92776252.96943  22656924.144    22656911.836          44.000
        30.000  
 116801190.226 7  91013967.491 7  22226553.500    22226545.839          46.000
        50.000  
 122172564.246 6  95199418.707 7  23248682.217    23248676.497          43.000
        50.000  
 131493656.251 4                  25022448.069                          33.000
                
 126655362.786 6  98692475.155 5  24101720.501    24101711.206          42.000
        38.000  
 121069994.777 6  94340118.371 7  23038830.211    23038823.596          43.000
        50.000  
 132933804.673 6 103584785.115 5  25296478.188    25296468.355          41.000
        36.000  
 111425368.443 7  86824927.999 8  21203543.961    21203534.484          47.000
        55.000  
 125253435.039 4                  23472437.852                          33.000
                  23472436.469
 119802852.003 6  93179953.166 5  22443111.258    22443101.035          41.000
        39.000    22443109.172
 120293232.194 6  93561345.083 6  22503334.906    22503329.023          44.000
        43.000    22503334.227
 112248037.126 5  87303993.758 7  20990946.914    20990941.148          37.000
        46.000    20990946.352
 128862961.754 3 100226695.549 3  24064243.352    24064242.164          30.000
        30.000    24064243.496
 126930146.545 5  98906603.572 5  24154012.245    24154004.342          36.000
        37.000  
 109367685.974 7  85221563.58345  20811988.604    20811977.836          47.000
        38.000  
 115083072.358 6  89508925.354 6  21536207.320    21536200.266          45.000
        45.000    21536207.348
 104444212.838 5  81234353.182 6  19524747.391    19524738.809          36.000
        45.000    19524745.188
 119899358.284 5  93255018.978 4  22445405.172    22445394.008          37.000
        34.000    22445404.023
 125777237.217 6  97826688.846 5  23595490.414    23595481.363          42.000
        38.000    23595490.676
 20  7  1 12 15 30.0000000  0 20G 1G22G 9G 8G16G 7G 3G31G 4R 6R18R 5
                                R20R 4G17G11R15R19R16R14
 106524527.568 7  83006182.291 8  20270968.144    20270961.008          48.000
        55.000  
 119055760.737 6  92770601.74244  22655544.660    22655531.414          45.000
        31.000  
 116793400.698 7  91007897.703 7  22225071.500    22225063.370          46.000
        50.000  
 122214428.900 6  95232040.493 7  23256649.334    23256642.911          43.000
        50.000  
 131491965.625 4                  25022126.115                          34.000
                
 126601172.555 6  98650249.002 5  24091409.056    24091398.998          42.000
        39.000  
 121058874.463 6  94331453.178 7  23036714.023    23036706.706          43.000
        50.000  
 132974866.078 5 103616781.029 4  25304291.414    25304281.582          40.000
        34.000  
 111443327.883 7  86838922.381 8  21206961.133    21206952.418          47.000
        55.000  
 125255840.396 4                  23472888.508                          33.000
                  23472887.008
 119865387.158 6  93228591.617 5  22454825.102    22454814.996          42.000
        39.000    22454825.129
 120312749.783 6  93576525.426 6  22506986.641    22506979.234          43.000
        41.000    22506986.668
 112207936.808 5  87272804.670 7  20983448.078    20983441.375          37.000
        46.000    20983446.813
 128883756.103 4 100242868.946 4  24068130.703    24068127.051          32.000
        31.000    24068130.023
 126907254.928 5  98888765.939 5  24149656.854    24149648.717          36.000
        37.000  
 109388870.388 7  85238070.91645  20816019.924    20816009.039          47.000
        38.000  
 115064431.648 6  89494427.024 6  21532719.117    21532711.945          45.000
        44.000    21532718.438
 104470873.241 4  81255089.054 7  19529731.773    19529722.137          35.000
        46.000    19529730.742
 119854625.331 5  93220226.671 4  22437031.945    22437021.605          37.000
        35.000    22437030.211
 125795551.167 5  97840932.976 5  23598925.219    23598918.750          40.000
        37.000    23598924.422
 20  7  1 12 15 45.0000000  0 20G 1G22G 9G 8G16G 7G 3G31G 4R 6R18R 5
                                R20R 4G17G11R15R19R16R14
 106508975.961 7  82994064.150 8  20268009.090    20268002.129          48.000
        55.000  
 119048505.724 6  92764948.48543  22654163.504    22654151.430          44.000
        30.000  
 116785703.629 7  91001899.980 7  22223606.773    22223599.698          46.000
        50.000  
 122256276.499 6  95264649.016 7  23264611.686    23264605.615          43.000
        50.000  
 131490247.287 4                  25021798.194                          34.000
                
 126546979.788 6  98608020.862 5  24081096.220    24081086.631          41.000
        40.000  
 121047718.151 6  94322759.959 7  23034591.523    23034583.737          43.000
        50.000  
 133015985.625 5 103648822.269 4  25312115.281    25312106.211          39.000
        33.000  
 111461359.898 7  86852973.293 8  21210393.039    21210383.797          47.000
        55.000  
 125258273.029 4                  23473344.227                          32.000
                  23473342.258
 119927961.780 5  93277260.772 5  22466547.930    22466538.527          40.000
        39.000    22466546.313
 120332224.543 6  93591672.458 6  22510629.992    22510622.820          44.000
        41.000    22510629.430
 112167991.698 5  87241736.231 6  20975977.836    20975971.367          36.000
        45.000    20975976.570
 128904471.542 4 100258980.972 4  24071996.766    24071995.105          31.000
        31.000    24071996.203
 126884470.505 5  98871011.844 5  24145321.581    24145312.916          38.000
        36.000  
 109410164.064 7  85254663.39045  20820071.744    20820061.328          47.000
        38.000  
 115045890.260 7  89480005.946 6  21529249.313    21529240.965          46.000
        44.000    21529248.633
 104497712.454 5  81275963.971 7  19534749.117    19534740.066          36.000
        46.000    19534747.148
 119809875.145 5  93185420.998 4  22428654.648    22428643.367          37.000
        34.000    22428653.852
 125813994.923 5  97855278.112 4  23602384.313    23602376.434          39.000
        35.000    23602383.281
 20  7  1 12 15 60.0000000  0 20G 1G22G 9G 8G16G 7G 3G31G 4R 6R18R 5
                                R20R 4G17G11R15R19R16R14
 106493556.896 7  82982049.296 8  20265074.402    20265067.207          49.000
        55.000  
 119041248.424 6  92759293.44043  22652782.863    22652770.614          45.000
        30.000  
 116778098.945 6  90995974.262 7  22222159.219    22222152.612          44.000
        50.000  
 122298106.717 6  95297243.968 7  23272571.850    23272565.544          44.000
        50.000  
 131488501.534 4                  25021465.069                          34.000
                
 126492784.788 6  98565790.993 5  24070783.486    24070773.721          41.000
        39.000  
 121036526.076 6  94314038.866 7  23032461.078    23032454.229          44.000
        50.000  
 133057163.185 5 103680908.687 4  25319950.742    25319941.965          37.000
        35.000  
 111479464.268 7  86867080.592 8  21213837.555    21213828.605          47.000
        55.000  
 125260732.796 4                  23473806.148                          33.000
                  23473804.063
 119990575.570 5  93325960.358 5  22478275.930    22478267.348          40.000
        40.000    22478275.484
 120351656.237 6  93606786.002 6  22514265.461    22514257.113          44.000
        41.000    22514265.016
 112128201.987 5  87210788.688 7  20968536.492    20968530.609          36.000
        46.000    20968535.109
 128925107.98813 100275031.553 4  24075851.633    24075846.453          30.000
        33.000    24075851.309
 126861793.686 5  98853341.594 4  24141005.690    24140997.318          36.000
        35.000  
 109431566.856 7  85271340.86845  20824145.065    20824134.121          47.000
        39.000  
 115027448.961 7  89465662.719 6  21525798.625    21525789.223          46.000
        43.000    21525798.063
 104524730.128 4  81296977.792 7  19539799.023    19539791.027          35.000
        46.000    19539797.875
 119765108.105 5  93150602.188 5  22420273.078    22420264.848          36.000
        36.000    22420272.754
 125832568.533 5  97869724.260 4  23605869.547    23605858.617          40.000
        33.000    23605868.867
 20  7  1 12 16 15.0000000  0 20G 1G22G 9G 8G16G 7G 3G31G 4R 6R18R 5
                                R20R 4G17G11R15R19R16R14
 106478270.235 7  82970137.624 8  20262166.051    20262158.328          49.000
        55.000  
 119033988.623 6  92753636.43543  22651401.777    22651388.766          44.000
        30.000  
 116770586.118 6  90990120.088 7  22220729.781    22220722.589          45.000
        50.000  
 122339918.692 6  95329824.713 7  23280528.428    23280522.474          43.000
        50.000  
 131486728.173 4                  25021129.772                          34.000
                
 126438587.575 6  98523559.386 5  24060469.861    24060460.623          41.000
        40.000  
 121025297.951 6  94305289.662 7  23030324.539    23030317.749          43.000
        50.000  
 133098398.265 5 103713039.942 4  25327797.102    25327788.500          36.000
        34.000  
 111497640.281 7  86881243.700 8  21217296.883    21217288.227          47.000
        55.000  
 125263218.953 3                  23474270.883                          30.000
                  23474269.734
 120053227.520 5  93374689.625 6  22490013.250    22490004.668          40.000
        41.000    22490011.750
 120371044.411 6  93621865.664 6  22517892.625    22517883.809          43.000
        41.000    22517892.180
 112088567.996 4  87179962.258 7  20961123.883    20961119.289          35.000
        46.000    20961123.320
 128945665.203 3 100291020.555 4  24079691.656    24079682.723          30.000
        31.000    24079689.922
 126839224.318 5  98835755.043 5  24136711.979    24136703.021          38.000
        36.000  
 109453078.105 7  85288102.87645  20828238.424    20828227.832          47.000
        39.000  
 115009107.589 7  89451397.169 6  21522365.922    21522357.691          46.000
        44.000    21522365.359
 104551925.640 4  81318129.832 6  19544883.070    19544875.191          34.000
        45.000    19544881.570
 119720324.422 5  93115770.465 5  22411890.375    22411881.559          36.000
        38.000    22411889.227
 125851271.485 5  97884271.009 5  23609378.516    23609370.168          40.000
        36.000    23609378.543
 20  7  1 12 16 30.0000000  0 20G 1G22G 9G 8G16G 7G 3G31G 4R 6R18R 5
                                R20R 4G17G11R15R19R16R14
 106463116.115 7  82958329.213 8  20259282.176    20259274.805          49.000
        55.000  
 119026726.391 6  92747977.54444  22650018.324    22650006.953          44.000
        31.000  
 116763164.852 7  90984337.292 7  22219318.211    22219310.081          46.000
        50.000  
 122381712.120 6  95362391.001 7  23288481.725    23288475.712          44.000
        50.000  
 131484927.319 4                  25020787.819                          35.000
                
 126384388.433 6  98481326.280 5  24050156.290    24050147.112          41.000
        40.000  
 121014033.698 6  94296512.327 7  23028180.969    23028174.178          43.000
        50.000  
 133139690.501 5 103745215.709 4  25335654.195    25335646.063          36.000
        34.000  
 111515887.506 7  86895462.306 8  21220768.883    21220760.285          47.000
        55.000  
 125265730.871 4                  23474740.781                          31.000
                  23474739.984
 120115916.958 6  93423448.034 5  22501755.875    22501747.762          41.000
        40.000    22501755.551
 120390388.483 6  93636911.044 6  22521511.555    22521502.855          44.000
        42.000    22521510.875
 112049089.899 5  87149257.064 6  20953741.625    20953736.797          36.000
        45.000    20953741.301
 128966142.932 3 100306947.610 4  24083515.039    24083504.816          28.000
        32.000    24083512.016
 126816762.115 5  98818252.024 4  24132436.722    24132428.115          36.000
        35.000  
 109474697.682 7  85304949.29845  20832352.119    20832341.879          48.000
        38.000  
 114990866.452 7  89437209.603 6  21518952.016    21518944.609          46.000
        44.000    21518952.160
 104579298.142 4  81339419.523 6  19550000.883    19549992.184          35.000
        45.000    19549998.914
 119675523.948 5  93080925.640 5  22403502.891    22403494.895          37.000
        37.000    22403502.445
 125870103.771 5  97898918.337 5  23612908.859    23612906.145          39.000
        37.000    23612910.879
 20  7  1 12 16 45.0000000  0 20G 1G22G 9G 8G16G 7G 3G31G 4R 6R18R 5
                                R20R 4G17G11R15R19R16R14
 106448095.323 7  82946624.703 8  20256423.723    20256416.527          49.000
        55.000  
 119019462.350 6  92742317.24744  22648637.254    22648624.946          45.000
        31.000  
 116755835.569 7  90978626.143 7  22217922.727    22217915.183          46.000
        50.000  
 122423487.004 6  95394942.858 7  23296431.108    23296424.802          43.000
        50.000  
 131483099.645 4                  25020436.608                          31.000
                
 126330188.167 6  98439092.306 5  24039842.025    24039832.846          41.000
        40.000  
 121002733.995 6  94287707.349 7  23026031.250    23026024.635          45.000
        50.000  
 133181040.054 4 103777436.152 4  25343522.336    25343515.258          35.000
        34.000  
 111534206.179 7  86909736.583 8  21224255.070    21224245.652          48.000
        55.000  
 125268269.117 3                  23475216.086                          30.000
                  23475215.289
 120178643.838 6  93472235.615 5  22513507.898    22513499.199          42.000
        40.000    22513507.453
 120409688.857 6  93651922.414 6  22525122.320    22525114.441          43.000
        42.000    22525120.938
 112009768.461 5  87118673.759 7  20946388.992    20946382.641          37.000
        46.000    20946388.195
 128986541.81813 100322813.367 3  24087324.313    24087311.977          28.000
        30.000    24087324.457
 126794407.451 5  98800832.801 5  24128181.542    24128174.224          37.000
        37.000  
 109496425.806 7  85321880.30145  20836486.440    20836476.727          47.000
        38.000  
 114972726.633 7  89423100.841 6  21515557.742    21515549.980          46.000
        44.000    21515557.418
 104606848.067 5  81360847.257 6  19555149.539    19555141.543          36.000
        45.000    19555149.094
 119630707.805 5  93046068.690 5  22395114.906    22395103.859          37.000
        37.000    22395114.109
 125889065.908 5  97913666.645 5  23616469.375    23616462.438          38.000
        36.000    23616468.344
 20  7  1 12 16 60.0000000  0 19G 1G22G 9G 8G16G 7G 3G31G 4R 6R18R 5
                                R20G17G11R15R19R16R14
 106433208.147 7  82935024.301 8  20253590.598    20253583.695          49.000
        55.000  
 119012196.742 6  92736655.71944  22647254.918    22647242.024          44.000
        31.000  
 116748598.080 6  90972986.537 7  22216545.961    22216538.124          45.000
        50.000  
 122465243.264 6  95427480.172 7  23304378.069    23304370.357          43.000
        50.000  
 131481245.794 3                  25020084.686                          29.000
                
 126275987.196 5  98396857.790 5  24029527.931    24029518.577          40.000
        40.000  
 120991398.957 6  94278874.829 7  23023873.617    23023867.823          44.000
        50.000  
 133222446.872 4 103809701.192 4  25351401.469    25351394.977          34.000
        33.000  
 111552596.009 7  86924066.315 8  21227754.422    21227745.824          48.000
        55.000  
 125270832.961 3                  23475696.500                          30.000
                  23475695.938
 120241407.879 6  93521052.040 6  22525266.586    22525257.301          42.000
        41.000    22525265.906
 120428945.392 6  93666899.710 6  22528724.047    22528716.758          43.000
        41.000    22528723.957
 111970604.334 5  87088212.815 7  20939065.133    20939058.547          36.000
        46.000    20939063.867
 126772160.690 5  98783497.652 5  24123949.940    24123940.748          37.000
        36.000  
 109518262.294 7  85338895.73345  20840642.807    20840631.922          48.000
        38.000  
 114954688.555 6  89409071.238 6  21512181.977    21512173.863          45.000
        44.000    21512181.770
 104634574.981 5  81382412.571 6  19560333.508    19560325.160          36.000
        45.000    19560332.359
 119585876.655 5  93011199.988 5  22386720.648    22386712.652          37.000
        38.000    22386720.676
 125908158.092 5  97928516.081 4  23620049.594    23620042.070          36.000
        34.000    23620050.793
 20  7  1 12 17 15.0000000  0 19G 1G22G 9G 8G16G 7G 3G31G 4R 6R18R 5
                                R20G17G11R15R19R16R14
 106418455.586 7  82923528.797 8  20250783.816    20250776.445          49.000
        55.000  
 119004930.509 6  92730993.72144  22645871.691    22645859.559          44.000
        32.000  
 116741453.074 6  90967418.999 7  22215185.977    22215178.081          45.000
        50.000  
 122506981.268 6  95460003.274 7  23312319.889    23312312.997          44.000
        50.000  
 131479366.023 3                  25019725.279                          29.000
                
 126221786.472 5  98354623.471 5  24019213.712    24019204.534          39.000
        40.000  
 120980029.493 6  94270015.491 7  23021710.250    23021703.753          44.000
        50.000  
 133263911.332 4 103842011.156 4  25359292.805    25359284.613          33.000
        33.000  
 111587917.138 7  86974065.643 8  21221651.408    21205184.182          48.000
        55.000  
 125290282.612 4                  23466567.556                          32.000
                  23466566.291
 120304208.984 6  93569897.350 6  22537031.492    22537022.207          43.000
        42.000    22537030.695
 120448158.412 6  93681843.206 6  22532318.617    22532310.270          44.000
        41.000    22532318.762
 111931598.756 5  87057875.094 7  20931771.594    20931765.242          36.000
        46.000    20931771.270
 126750022.424 5  98766247.082 5  24119736.018    24119727.295          37.000
        36.000  
 109540207.663 7  85355996.01445  20844819.111    20844807.818          47.000
        38.000  
 114936753.466 7  89395121.714 6  21508825.406    21508818.000          46.000
        45.000    21508825.199
 104662479.201 5  81404115.882 7  19565549.430    19565540.730          36.000
        46.000    19565547.695
 119541031.634 5  92976320.554 5  22378324.586    22378315.887          38.000
        37.000    22378324.141
 125927381.025 5  97943467.303 4  23623657.320    23623648.152          38.000
        35.000    23623657.348
 20  7  1 12 17 30.0000000  0 19G 1G22G 9G 8G16G 7G 3G31G 4R 6R18R 5
                                R20G17G11R15R19R16R14
 106403833.939 7  82912135.311 8  20248001.083    20247994.062          49.000
        55.000  
 118997660.075 6  92725328.43244  22644489.168    22644476.332          45.000
        32.000  
 116734396.422 6  90961920.301 7  22213843.086    22213835.542          45.000
        50.000  
 122548697.062 6  95492509.076 7  23320258.498    23320251.607          43.000
        50.000  
 131477457.327 4                  25019365.287                          33.000
                
 126167582.493 5  98312386.634 6  24008899.282    24008890.163          39.000
        41.000  
 120968621.726 6  94261126.301 7  23019540.203    23019533.530          44.000
        50.000  
 133305429.251 4 103874362.801 4  25367193.727    25367185.594          33.000
        34.000  
 111610916.446 7  86997949.813 8  21222625.453    21201792.078          47.000
        55.000  
 125297365.244 3                  23464505.172                          30.000
                  23464503.320
 120367042.839 6  93618768.110 6  22548801.688    22548793.105          43.000
        42.000    22548801.242
 120467323.748 6  93696749.547 6  22535903.383    22535896.445          44.000
        42.000    22535904.699
 111892747.818 5  87027657.710 6  20924505.398    20924498.461          36.000
        45.000    20924503.898
 126727988.913 5  98749078.109 5  24115544.347    24115534.275          37.000
        36.000  
 109562257.835 7  85373177.95945  20849014.447    20849003.798          47.000
        38.000  
 114918917.700 6  89381249.498 6  21505486.711    21505480.477          45.000
        44.000    21505486.738
 104690556.558 5  81425953.809 7  19570798.727    19570790.730          36.000
        46.000    19570797.695
 119496169.132 5  92941427.507 5  22369927.320    22369917.801          38.000
        38.000    22369926.996
 125946730.610 5  97958516.925 4  23627285.797    23627279.211          37.000
        35.000    23627286.410
 20  7  1 12 17 45.0000000  0 19G 1G22G 9G 8G16G 7G 3G31G 4R 6R18R 5
                                R20G17G11R15R19R16R14
 106389347.217 7  82900846.944 8  20245243.817    20245237.558          48.000
        55.000  
 118990389.169 6  92719662.78644  22643104.840    22643092.707          45.000
        32.000  
 116727431.741 6  90956493.262 7  22212517.750    22212510.733          45.000
        50.000  
 122590393.632 6  95524999.904 7  23328192.569    23328187.083          43.000
        50.000  
 131475523.267 4                  25018997.147                          34.000
                
 126113379.359 5  98270150.423 6  23998584.189    23998575.127          40.000
        41.000  
 120957179.538 6  94252210.303 7  23017361.578    23017355.784          44.000
        50.000  
 133347004.259 4 103906758.913 4  25375106.414    25375098.047          35.000
        34.000  
 111632450.790 7  87018644.170 8  21224489.925    21200789.518          46.000
        55.000  
 125302937.272 3                  23463325.472                          30.000
                  23463323.503
 120429912.769 6  93667666.901 6  22560580.055    22560570.770          43.000
        41.000    22560579.609
 120486445.018 6  93711621.654 6  22539479.953    22539471.957          42.000
        42.000    22539478.922
 111854055.981 5  86997564.092 7  20917269.258    20917264.195          36.000
        46.000    20917268.934
 126706063.949 5  98731993.648 5  24111370.496    24111362.416          36.000
        36.000  
 109584416.367 7  85390444.34645  20853231.292    20853220.232          48.000
        38.000  
 114901185.688 6  89367457.873 6  21502169.875    21502161.879          45.000
        44.000    21502169.902
 104718810.325 5  81447928.947 7  19576079.758    19576072.113          36.000
        46.000    19576079.313
 119451293.253 5  92906524.085 5  22361526.609    22361517.559          39.000
        38.000    22361526.754
 125966210.702 4  97973668.060 4  23630938.719    23630934.598          34.000
        34.000    23630938.395
 20  7  1 12 17 60.0000000  0 19G 1G22G 9G 8G16G 7G 3G31G 4R 6R18R 5
                                R20G17G11R15R19R16R14
 106374994.685 7  82889663.146 8  20242512.685    20242506.133          48.000
        55.000  
 118983117.108 6  92713996.21844  22641721.011    22641708.821          45.000
        32.000  
 116720557.892 7  90951137.013 7  22211209.188    22211202.405          46.000
        50.000  
 122632070.162 6  95557475.115 7  23336123.592    23336117.052          42.000
        50.000  
 131473563.418 4                  25018622.397                          31.000
                
 126059176.354 5  98227914.315 6  23988269.650    23988261.116          40.000
        42.000  
 120945702.066 6  94243266.816 7  23015176.969    23015171.292          43.000
        50.000  
 133388635.242 5 103939198.662 4  25383029.102    25383020.090          36.000
        34.000  
 111653181.727 7  87037548.158 8  21226866.677    21201151.270          46.000
        55.000  
 125307660.170 4                  23462648.029                          31.000
                  23462648.056
 120492816.978 6  93716592.400 6  22572363.617    22572354.332          43.000
        41.000    22572364.113
 120505521.065 6  93726458.550 6  22543048.117    22543041.648          42.000
        42.000    22543048.262
 111815522.554 4  86967593.641 7  20910063.984    20910059.156          35.000
        46.000    20910062.250
 126684246.456 5  98714993.013 5  24107219.910    24107211.654          37.000
        38.000  
 109606682.080 7  85407794.24845  20857467.425    20857457.243          47.000
        37.000  
 114883556.694 6  89353746.453 6  21498870.289    21498863.469          45.000
        45.000    21498869.375
 104747238.868 5  81470040.047 6  19581395.328    19581386.043          36.000
        45.000    19581393.477
 119406403.735 5  92871609.986 5  22353123.742    22353114.223          39.000
        38.000    22353123.063
 125985820.370 4  97988920.012 4  23634617.422    23634614.824          34.000
        33.000    23634617.449
 20  7  1 12 18 15.0000000  0 19G 1G22G 9G 8G16G 7G 3G31G 4R 6R18R 5
                                R20G17G11R15R19R16R14
 106360776.458 7  82878583.998 8  20239807.599    20239800.812          48.000
        55.000  
 118975843.860 6  92708328.74444  22640336.543    22640324.352          45.000
        31.000  
 116713774.550 7  90945851.300 7  22209918.711    22209911.401          46.000
        50.000  
 122673725.962 6  95589934.159 7  23344050.936    23344044.103          42.000
        50.000  
 131471577.702 4                  25018247.647                          34.000
                
 126004973.670 5  98185678.459 6  23977955.431    23977946.721          40.000
        42.000  
 120934189.309 6  94234295.814 7  23012987.094    23012981.006          44.000
        50.000  
 133430321.632 5 103971681.587 4  25390961.227    25390952.801          37.000
        34.000  
 111673443.833 7  87055369.321 7  21229561.628    21202358.433          46.000
        50.000  
 125311868.630 3                  23462279.854                          30.000
                  23462279.530
 120555755.218 6  93765544.332 6  22584155.008    22584145.488          42.000
        42.000    22584153.977
 120524551.218 6  93741259.792 6  22546607.781    22546600.727          43.000
        42.000    22546606.867
 111777147.756 4  86937746.594 6  20902887.008    20902881.828          35.000
        45.000    20902885.625
 126662536.357 5  98698076.060 5  24103089.566    24103080.373          38.000
        38.000  
 109629054.599 7  85425227.37845  20861725.316    20861714.196          47.000
        38.000  
 114866031.162 6  89340115.494 6  21495590.625    21495584.273          45.000
        45.000    21495590.418
 104775841.798 5  81492286.763 6  19586742.063    19586733.949          37.000
        45.000    19586741.617
 119361500.511 5  92836685.282 5  22344718.258    22344707.563          39.000
        38.000    22344716.992
 126005559.416 4  98004272.536 3  23638322.617    23638314.621          34.000
        30.000    23638321.938
 20  7  1 12 18 30.0000000  0 19G 1G22G 9G 8G16G 7G 3G31G 4R 6R18R 5
                                R20G17G11R15R19R16R14
 106346693.198 7  82867610.033 8  20237127.544    20237120.465          49.000
        55.000  
 118968570.198 7  92702660.93544  22638953.129    22638940.352          46.000
        32.000  
 116707082.043 7  90940636.359 7  22208645.664    22208638.706          46.000
        50.000  
 122715361.028 6  95622377.048 7  23351974.615    23351967.314          41.000
        50.000  
 131469566.536 3                  25017861.623                          30.000
                
 125950771.908 5  98143443.331 6  23967641.548    23967632.311          40.000
        42.000  
 120922641.770 6  94225297.733 7  23010789.945    23010783.858          44.000
        50.000  
 133472063.576 5 104004207.793 4  25398905.641    25398896.570          37.000
        33.000  
 111693422.738 7  87072499.833 8  21232472.919    21204123.902          46.000
        55.000  
 125315748.63012                  23462116.693                          25.000
                  23462116.486
 120618727.103 6  93814522.442 6  22595950.633    22595941.934          42.000
        41.000    22595950.309
 120543535.927 6  93756025.613 6  22550161.352    22550152.301          44.000
        42.000    22550160.555
 111738932.271 5  86908023.439 7  20895739.227    20895735.809          36.000
        46.000    20895739.957
 126640934.316 5  98681243.283 5  24098977.473    24098969.803          37.000
        38.000  
 109651534.049 7  85442743.82545  20866003.339    20865992.161          47.000
        38.000  
 114848609.815 6  89326565.537 6  21492330.438    21492323.734          45.000
        45.000    21492330.348
 104804619.358 5  81514669.287 6  19592122.664    19592113.379          36.000
        45.000    19592121.516
 119316584.910 5  92801750.895 5  22336308.625    22336300.277          38.000
        39.000    22336307.945
 126025428.330 4  98019726.259 4  23642049.359    23642040.074          32.000
        31.000    23642047.273
 20  7  1 12 18 45.0000000  0 19G 1G22G 9G 8G16G 7G 3G31G 4R 6R18R 5
                                R20G17G11R15R19R16R14
 106332745.970 7  82856742.069 8  20234472.958    20234465.879          49.000
        55.000  
 118961297.153 6  92696993.61244  22637568.933    22637556.508          45.000
        31.000  
 116700481.044 7  90935492.703 7  22207389.758    22207382.214          46.000
        50.000  
 122756976.242 5  95654804.480 6  23359892.123    23359886.111          40.000
        45.000  
 131467531.11313                  25017473.569                          28.000
                
 125896572.720 5  98101210.218 6  23957327.642    23957318.698          40.000
        42.000  
 120911060.428 6  94216273.287 7  23008585.500    23008579.178          44.000
        50.000  
 133513861.680 5 104036777.800 4  25406858.234    25406849.750          37.000
        35.000  
 111713227.296 7  87089168.895 8  21235535.524    21206282.220          46.000
        55.000  
 125319408.503 3                  23462100.430                          30.000
                  23462100.106
 120681732.914 6  93863526.922 6  22607753.789    22607745.324          41.000
        42.000    22607753.465
 120562475.755 6  93770756.597 6  22553703.836    22553695.371          43.000
        42.000    22553704.098
 111700877.772 5  86878425.503 7  20888624.375    20888619.313          36.000
        46.000    20888623.813
 126619440.879 5  98664495.162 5  24094888.613    24094880.533          37.000
        39.000  
 109674121.152 7  85460344.15245  20870301.511    20870290.978          48.000
        38.000  
 114831294.097 7  89313097.744 6  21489090.633    21489083.461          46.000
        44.000    21489090.309
 104833571.872 5  81537187.897 6  19597534.445    19597523.633          36.000
        45.000    19597532.594
 119271657.775 5  92766807.597 5  22327898.625    22327890.160          39.000
        39.000    22327897.828
 126045428.036 4  98035281.585 4  23645803.898    23645796.492          33.000
        35.000    23645802.750
 20  7  1 12 18 60.0000000  0 19G 1G22G 9G 8G16G 7G 3G31G 4R 6R18R 5
                                R20G17G11R15R19R16R14
 106318933.189 7  82845978.855 8  20231844.583    20231837.915          47.000
        55.000  
 118954022.985 6  92691325.42244  22636184.285    22636171.977          44.000
        31.000  
 116693969.499 7  90930418.779 7  22206150.422    22206143.112          46.000
        50.000  
 122798569.280 5  95687214.614 6  23367806.444    23367799.728          40.000
        45.000  
 131465469.814 3                  25017083.240                          30.000
                
 125842374.234 5  98058977.655 6  23947013.587    23947004.936          40.000
        42.000  
 120899443.492 6  94207221.137 7  23006375.015    23006369.338          42.000
        50.000  
 133555714.004 5 104069389.996 4  25414824.023    25414813.664          37.000
        34.000  
 111732924.768 7  87105521.565 8  21238711.416    21208722.461          46.000
        55.000  
 125322915.470 4                  23462187.549                          32.000
                  23462187.928
 120744770.480 5  93912556.108 6  22619564.086    22619553.980          40.000
        41.000    22619562.469
 120581368.491 6  93785450.913 6  22557239.148    22557229.863          44.000
        41.000    22557238.941
 111662982.236 5  86848951.168 7  20881537.680    20881532.852          36.000
        46.000    20881537.117
 126598054.482 5  98647830.419 5  24090818.973    24090810.189          37.000
        38.000  
 109696813.858 7  85478026.76545  20874619.769    20874609.118          47.000
        38.000  
 114814082.387 6  89299710.883 6  21485869.625    21485861.746          45.000
        45.000    21485869.418
 104862696.931 5  81559840.693 6  19602978.258    19602968.973          36.000
        45.000    19602976.875
 119226718.022 5  92731854.445 5  22319485.828    22319475.488          39.000
        37.000    22319484.797
 126065556.477 4  98050936.971 4  23649578.961    23649571.906          33.000
        35.000    23649577.813
 20  7  1 12 19 15.0000000  0 19G 1G22G 9G 8G16G 7G 3G31G 4R 6R18R 5
                                R20G17G11R15R19R16R14
 106305254.877 7  82835320.418 8  20229242.216    20229235.196          47.000
        55.000  
 118946747.644 6  92685656.31444  22634799.535    22634787.344          42.000
        31.000  
 116687547.051 6  90925414.268 7  22204928.117    22204920.632          45.000
        50.000  
 122840139.568 5  95719607.020 6  23375718.350    23375711.224          39.000
        45.000  
 131463382.792 4                  25016686.319                          31.000
                
 125788176.552 6  98016745.712 6  23936700.665    23936691.487          41.000
        41.000  
 120887790.958 6  94198141.210 7  23004158.226    23004151.729          42.000
        50.000  
 133597619.975 4 104102044.011 4  25422797.688    25422788.031          34.000
        33.000  
 111752559.409 7  87121652.055 8  21241974.665    21211376.884          47.000
        55.000  
 125326314.095 4                  23462354.095                          32.000
                  23462352.829
 120807838.835 6  93961609.278 6  22631378.992    22631368.418          41.000
        41.000    22631377.492
 120600213.696 6  93800108.231 5  22560764.023    22560754.152          44.000
        40.000    22560763.934
 111625246.053 4  86819600.833 7  20874480.727    20874476.488          35.000
        46.000    20874479.578
 126576774.746 5  98631248.761 5  24086770.121    24086759.873          40.000
        36.000  
 109719611.582 7  85495791.21245  20878958.628    20878947.626          48.000
        38.000  
 114796974.947 6  89286405.077 6  21482668.914    21482660.684          45.000
        44.000    21482667.766
 104891993.882 5  81582627.213 6  19608455.352    19608446.652          36.000
        45.000    19608454.320
 119181765.748 5  92696891.560 5  22311071.969    22311061.395          39.000
        38.000    22311071.055
 126085813.573 4  98066692.519 5  23653380.836    23653371.668          34.000
        37.000    23653378.164
 20  7  1 12 19 30.0000000  0 19G 1G22G 9G 8G16G 7G 3G31G 4R 6R18R 5
                                R20G17G11R15R19R16R14
 106291712.996 7  82824768.288 8  20226664.903    20226658.001          49.000
        55.000  
 118939473.149 6  92679987.85744  22633414.926    22633403.438          42.000
        31.000  
 116681215.311 6  90920480.440 7  22203722.477    22203715.636          44.000
        50.000  
 122881688.945 5  95751983.132 6  23383624.678    23383618.372          40.000
        45.000  
 131461271.988 4                  25016284.311                          31.000
                
 125733981.871 6  97974516.093 6  23926387.548    23926378.897          42.000
        42.000  
 120876104.577 6  94189034.929 7  23001934.406    23001928.553          43.000
        50.000  
 133639581.130 4 104134741.102 4  25430780.508    25430772.844          32.000
        33.000  
 111772163.380 7  87137626.438 8  21245306.295    21214197.340          48.000
        55.000  
 125329636.256 4                  23462578.350                          34.000
                  23462578.494
 120870939.232 5  94010687.328 6  22643198.992    22643189.707          40.000
        41.000    22643198.195
 120619012.868 6  93814729.831 5  22564279.922    22564270.285          43.000
        40.000    22564279.008
 111587671.535 5  86790376.188 7  20867453.242    20867448.531          36.000
        46.000    20867453.152
 126555603.765 5  98614751.869 5  24082740.894    24082730.529          39.000
        37.000  
 109742515.898 7  85513638.72245  20883317.081    20883306.138          48.000
        38.000  
 114779973.914 6  89273182.061 6  21479486.477    21479478.363          45.000
        44.000    21479485.914
 104921464.260 5  81605548.611 6  19613964.258    19613955.676          36.000
        45.000    19613963.109
 119136802.933 5  92661920.499 5  22302653.203    22302644.152          39.000
        38.000    22302652.758
 126106200.985 4  98082549.311 5  23657201.695    23657192.645          33.000
        36.000    23657200.078
 20  7  1 12 19 45.0000000  0 19G 1G22G 9G 8G16G 7G 3G31G 4R 6R18R 5
                                R20G17G11R15R19R16R14
 106278308.340 7  82814323.096 8  20224115.005    20224107.692          50.000
        55.000  
 118932200.262 6  92674320.65244  22632030.777    22632019.582          43.000
        32.000  
 116674974.679 6  90915617.593 7  22202535.430    22202528.237          45.000
        50.000  
 122923217.360 5  95784342.913 6  23391527.490    23391520.833          40.000
        45.000  
 131459138.022 3                  25015877.459                          29.000
                
 125679791.250 6  97932289.638 6  23916075.931    23916066.987          41.000
        42.000  
 120864385.086 6  94179902.829 7  22999704.062    22999697.917          44.000
        50.000  
 133681597.807 4 104167481.394 4  25438778.523    25438768.809          31.000
        32.000  
 111791759.058 7  87153491.644 8  21248695.290    21217149.046          47.000
        55.000  
 125332904.413 4                  23462852.251                          33.000
                  23462850.048
 120934071.815 5  94059790.460 6  22655025.617    22655017.270          40.000
        42.000    22655025.055
 120637766.330 6  93829315.849 6  22567788.148    22567780.859          43.000
        41.000    22567786.414
 111550259.304 4  86761277.822 7  20860458.695    20860451.875          35.000
        46.000    20860455.789
 126534541.967 5  98598340.115 5  24078731.809    24078723.084          38.000
        38.000  
 109765527.182 7  85531569.58345  20887695.487    20887684.544          48.000
        38.000  
 114763080.438 6  89260042.684 6  21476324.953    21476317.191          45.000
        44.000    21476324.746
 104951108.050 5  81628604.872 7  19619506.742    19619497.926          36.000
        46.000    19619505.008
 119091830.913 5  92626942.256 5  22294235.086    22294225.098          38.000
        37.000    22294234.172
 126126719.358 4  98098507.967 5  23661054.906    23661043.508          35.000
        37.000    23661053.289
 20  7  1 12 19 60.0000000  0 19G 1G22G 9G 8G16G 7G 3G31G 4R 6R18R 5
                                R20G17G11R15R19R16R14
 106265043.977 7  82803987.222 8  20221590.888    20221583.048          50.000
        55.000  
 118924931.976 6  92668657.02444  22630648.246    22630636.934          45.000
        32.000  
 116668827.795 7  90910827.812 7  22201366.679    22201358.843          46.000
        50.000  
 122964727.424 5  95816688.421 6  23399426.326    23399419.786          40.000
        45.000  
 131456984.017 3                  25015467.576                          30.000
                
 125625607.593 6  97890068.620 6  23905765.126    23905755.655          41.000
        42.000  
 120852635.424 6  94170747.243 7  22997468.344    22997462.608          43.000
        50.000  
 133723672.517 3 104200266.832 4  25446785.000    25446775.578          28.000
        33.000  
 111811364.638 7  87169282.731 8  21252132.826    21220209.656          46.000
        55.000  
 125336136.613 4                  23463166.381                          32.000
                  23463165.115
 120997239.053 5  94108920.497 6  22666859.250    22666851.371          40.000
        42.000    22666858.102
 120656476.830 6  93843868.421 6  22571288.117    22571281.063          42.000
        41.000    22571286.500
 111513012.990 5  86732308.480 7  20853492.523    20853487.578          36.000
        46.000    20853492.199
 126513591.989 5  98582015.438 5  24074744.934    24074736.560          37.000
        38.000  
 109788648.158 7  85549585.91845  20892095.276    20892084.685          48.000
        38.000  
 114746297.864 7  89246989.581 6  21473185.117    21473176.652          46.000
        44.000    21473184.203
 104980927.826 5  81651798.025 7  19625080.742    19625072.395          36.000
        46.000    19625079.242
 119046852.823 5  92591959.291 5  22285814.359    22285806.012          38.000
        37.000    22285813.797
 126147371.244 4  98114570.569 5  23664927.086    23664917.566          35.000
        37.000    23664926.641
 20  7  1 12 20 15.0000000  0 19G 1G22G 9G 8G16G 7G 3G31G 4R 6R18R 5
                                R20G17G11R15R19R16R14
 106251911.379 7  82793754.031 8  20219091.247    20219083.993          49.000
        55.000  
 118917659.749 6  92662990.32444  22629264.504    22629252.664          45.000
        32.000  
 116662765.733 7  90906104.114 8  22200212.827    22200205.167          46.000
        55.000  
 123006210.022 6  95849012.480 6  23407319.561    23407312.845          41.000
        45.000  
 131454801.514 3                  25015053.061                          29.000
                
 125571422.404 6  97847846.408 6  23895453.814    23895444.049          41.000
        41.000  
 120840846.934 6  94161561.409 7  22995225.445    22995219.006          43.000
        50.000  
 133765796.40813 104233090.59413  25454800.672    25454792.188          26.000
        30.000  
 111830982.765 6  87185017.397 8  21255609.982    21223359.300          45.000
        55.000  
 125339335.503 4                  23463510.615                          32.000
                  23463509.115
 121060431.194 5  94158069.929 6  22678698.039    22678688.637          40.000
        42.000    22678696.188
 120675135.129 6  93858380.437 6  22574778.617    22574771.445          43.000
        41.000    22574778.762
 111475923.740 5  86703461.280 7  20846558.742    20846551.453          36.000
        46.000    20846556.422
 126492745.305 5  98565771.294 5  24070778.262    24070769.478          37.000
        38.000  
 109811869.853 7  85567680.72845  20896514.206    20896503.439          47.000
        38.000  
 114729617.489 6  89234015.941 6  21470062.914    21470056.094          45.000
        45.000    21470062.824
 105010914.290 5  81675120.843 6  19630685.773    19630678.367          36.000
        45.000    19630685.566
 119001860.294 5  92556965.105 5  22277392.234    22277382.480          38.000
        36.000    22277390.969
 126168148.205 5  98130730.447 5  23668823.859    23668816.098          36.000
        38.000    23668822.594
 20  7  1 12 20 30.0000000  0 19G 1G22G 9G 8G16G 7G 3G31G 4R 6R18R 5
                                R20G17G11R15R19R16R14
 106238911.700 7  82783624.408 8  20216617.442    20216609.954          47.000
        55.000  
 118910384.559 6  92657321.35444  22627880.379    22627868.188          45.000
        32.000  
 116656789.270 7  90901447.118 7  22199075.710    22199067.639          47.000
        50.000  
 123047665.940 6  95881315.788 6  23415209.725    23415203.361          42.000
        45.000  
 131452591.507 4                  25014633.506                          32.000
                
 125517237.048 6  97805624.050 5  23885142.415    23885133.120          42.000
        40.000  
 120829020.650 6  94152346.116 7  22992974.750    22992968.780          41.000
        50.000  
 133807970.57313 104265953.17313  25462825.398    25462818.496          26.000
        29.000  
 111850623.083 7  87200715.255 8  21259122.472    21226584.082          46.000
        55.000  
 125342510.730 4                  23463882.800                          33.000
                  23463880.714
 121123648.787 5  94207239.103 5  22690539.609    22690529.973          40.000
        40.000    22690538.344
 120693742.039 6  93872852.458 5  22578258.625    22578250.746          41.000
        40.000    22578257.242
 111438992.941 5  86674737.340 7  20839651.406    20839645.172          37.000
        46.000    20839651.199
 126472003.004 5  98549608.390 5  24066830.527    24066822.448          37.000
        37.000  
 109835192.816 7  85585854.46245  20900952.816    20900942.048          48.000
        38.000  
 114713040.812 6  89221122.965 6  21466960.914    21466954.211          45.000
        45.000    21466960.234
 105041067.823 4  81698573.598 6  19636322.883    19636314.535          35.000
        45.000    19636321.383
 118956854.583 5  92521960.629 5  22268966.539    22268957.488          38.000
        36.000    22268966.684
 126189050.898 5  98146988.138 5  23672744.742    23672737.688          36.000
        37.000    23672745.590
 20  7  1 12 20 45.0000000  0 19G 1G22G 9G 8G16G 7G 3G31G 4R 6R18R 5
                                R20G17G11R15R19R16R14
 106226051.725 7  82773603.643 8  20214169.325    20214163.009          48.000
        55.000  
 118903113.182 6  92651655.32744  22626496.793    22626484.895          45.000
        32.000  
 116650904.781 7  90896861.797 7  22197955.663    22197948.471          46.000
        50.000  
 123089101.342 6  95913603.122 6  23423094.428    23423087.536          42.000
        45.000  
 131450360.911 4                  25014208.623                          31.000
                
 125463058.431 6  97763406.944 5  23874833.095    23874823.565          42.000
        40.000  
 120817163.260 6  94143106.573 7  22990717.312    22990711.811          42.000
        50.000  
 133850199.57613 104298859.29413  25470864.820    25470854.344          26.000
        27.000  
 111870298.869 7  87216396.001 8  21262667.731    21229873.587          46.000
        55.000  
 125345675.708 4                  23464276.497                          33.000
                  23464276.407
 121186898.033 5  94256432.933 6  22702388.945    22702380.129          40.000
        41.000    22702387.797
 120712303.868 6  93887289.443 6  22581731.594    22581724.422          42.000
        41.000    22581732.090
 111402227.606 4  86646142.081 7  20832775.867    20832769.633          35.000
        46.000    20832773.547
 126451371.404 5  98533531.734 5  24062905.184    24062896.343          38.000
        37.000  
 109858623.416 7  85604112.06945  20905412.011    20905400.599          48.000
        38.000  
 114696574.911 6  89208316.165 6  21463878.875    21463871.469          45.000
        44.000    21463878.551
 105071394.827 5  81722161.257 6  19641992.781    19641983.730          36.000
        45.000    19641990.813
 118911842.826 5  92486951.514 5  22260539.867    22260531.988          37.000
        36.000    22260540.012
 126210086.096 5  98163348.821 4  23676690.320    23676681.738          38.000
        35.000    23676690.816
 20  7  1 12 20 60.0000000  0 18G 1G22G 9G 8G16G 7G 3G 4R 6R18R 5R20
                                G17G11R15R19R16R14
 106213329.158 7  82763689.946 8  20211749.036    20211741.958          49.000
        55.000  
 118895843.421 6  92645990.55444  22625113.855    22625101.371          45.000
        31.000  
 116645109.593 6  90892346.049 7  22196853.077    22196844.537          45.000
        50.000  
 123130513.317 6  95945872.192 6  23430973.365    23430968.232          41.000
        45.000  
 131448107.37113                  25013777.826                          28.000
                
 125408884.433 6  97721193.445 5  23864523.697    23864514.108          43.000
        40.000  
 120805272.360 6  94133840.912 7  22988456.055    22988448.620          44.000
        50.000  
 111890012.637 6  87232068.742 8  21266242.192    21233219.903          45.000
        55.000  
 125348832.430 4                  23464693.411                          32.000
                  23464692.145
 121250175.843 6  94305649.005 5  22714243.047    22714233.879          42.000
        40.000    22714243.074
 120730818.042 6  93901689.343 5  22585193.766    22585185.770          41.000
        40.000    22585192.852
 111365625.623 5  86617673.857 6  20825930.680    20825924.445          37.000
        45.000    20825930.473
 126430848.163 5  98517539.599 5  24058999.848    24058991.768          39.000
        38.000  
 109882158.769 7  85622451.30445  20909889.214    20909879.325          48.000
        39.000  
 114680217.577 6  89195593.788 6  21460817.500    21460810.445          45.000
        44.000    21460816.703
 105101892.201 5  81745881.462 6  19647692.375    19647685.203          36.000
        45.000    19647692.402
 118866822.942 5  92451936.074 4  22252111.063    22252102.480          36.000
        35.000    22252111.207
 126231250.968 5  98179810.368 4  23680661.055    23680653.059          38.000
        35.000    23680661.551
 20  7  1 12 21 15.0000000  0 18G 1G22G 9G 8G16G 7G 3G 4R 6R18R 5R20
                                G17G11R15R19R16R14
 106200747.444 7  82753886.002 8  20209355.106    20209348.263          49.000
        55.000  
 118888578.566 6  92640329.63344  22623730.886    22623718.755          45.000
        31.000  
 116639406.750 7  90887902.296 7  22195767.616    22195760.189          46.000
        50.000  
 123171904.894 6  95978125.336 7  23438851.147    23438845.720          42.000
        50.000  
 131445834.42713                  25013343.467                          26.000
                
 125354718.558 6  97678986.273 5  23854215.954    23854206.717          42.000
        40.000  
 120793351.318 6  94124551.762 7  22986186.883    22986180.034          45.000
        50.000  
 111909771.650 7  87247744.950 8  21269842.733    21236615.240          46.000
        55.000  
 125351988.602 4                  23465125.015                          32.000
                  23465124.569
 121313484.858 6  94354889.314 5  22726103.039    22726094.105          43.000
        40.000    22726102.594
 120749287.302 6  93916054.338 5  22588649.805    22588641.340          42.000
        40.000    22588649.715
 111329190.604 5  86589335.513 7  20819116.695    20819111.984          37.000
        46.000    20819116.250
 126410436.586 5  98501634.490 5  24055115.801    24055107.604          39.000
        38.000  
 109905802.019 7  85640874.59945  20914388.480    20914378.415          47.000
        38.000  
 114663972.576 7  89182958.785 6  21457778.750    21457772.281          46.000
        45.000    21457778.895
 105132562.894 5  81769736.380 7  19653427.023    19653418.090          36.000
        46.000    19653424.820
 118821798.721 5  92416917.220 4  22243684.109    22243673.535          37.000
        35.000    22243681.789
 126252549.124 5  98196375.499 4  23684653.953    23684649.008          38.000
        34.000    23684654.801
 20  7  1 12 21 30.0000000  0 18G 1G22G 9G 8G16G 7G 3G 4R 6R18R 5R20
                                G17G11R15R19R16R14
 106188299.760 7  82744186.503 8  20206986.419    20206979.341          48.000
        55.000  
 118881312.016 6  92634667.36644  22622348.472    22622335.990          45.000
        33.000  
 116633789.116 7  90883524.911 7  22194698.374    22194690.596          46.000
        50.000  
 123213268.831 6  96010356.996 7  23446722.014    23446716.763          43.000
        50.000  
 131443535.06013                  25012908.537                          26.000
                
 125300554.093 6  97636780.202 5  23843909.118    23843899.706          43.000
        39.000  
 120781393.202 6  94115233.742 7  22983911.562    22983905.006          44.000
        50.000  
 111929571.962 7  87263426.046 8  21273466.794    21240054.906          46.000
        55.000  
 125355139.984 4                  23465573.232                          31.000
                  23465571.029
 121376817.596 6  94404148.112 6  22737967.984    22737960.223          42.000
        41.000    22737967.188
 120767704.352 6  93930378.645 6  22592094.602    22592087.313          42.000
        41.000    22592094.980
 111292915.626 5  86561121.628 7  20812334.234    20812328.469          36.000
        46.000    20812333.438
 126390129.473 5  98485810.791 5  24051251.840    24051242.940          39.000
        37.000  
 109929545.875 7  85659376.30045  20918906.480    20918896.532          47.000
        38.000  
 114647833.222 7  89170405.953 6  21454759.008    21454751.129          46.000
        45.000    21454758.684
 105163399.057 5  81793720.041 7  19659191.992    19659183.996          37.000
        46.000    19659191.078
 118776763.099 5  92381889.516 5  22235253.852    22235244.801          38.000
        36.000    22235253.289
 126273973.185 5  98213038.639 3  23688675.148    23688664.453          38.000
        29.000    23688674.703
 20  7  1 12 21 45.0000000  0 17G 1G22G 9G 8G 7G 3G 4R 6R18R 5R20G17
                                G11R15R19R16R14
 106175989.682 7  82734594.231 8  20204643.520    20204636.852          49.000
        55.000  
 118874047.005 6  92629006.30244  22620965.316    22620953.478          44.000
        31.000  
 116628259.734 7  90879216.287 7  22193646.694    22193638.799          46.000
        50.000  
 123254608.199 6  96042569.485 7  23454588.811    23454583.911          43.000
        50.000  
 125246394.774 6  97594578.147 5  23833602.478    23833593.650          43.000
        39.000  
 120769401.451 6  94105889.492 7  22981630.047    22981621.792          45.000
        50.000  
 111949419.477 7  87279120.561 8  21277112.802    21243533.097          46.000
        55.000  
 125358292.730 4                  23466034.059                          33.000
                  23466032.442
 121440176.884 6  94453427.542 6  22749837.297    22749828.832          43.000
        41.000    22749836.973
 120786072.555 6  93944664.995 6  22595532.344    22595524.820          43.000
        41.000    22595532.254
 111256804.553 5  86533035.267 7  20805580.469    20805575.055          37.000
        46.000    20805579.906
 126369930.126 5  98470071.068 5  24047407.394    24047398.554          38.000
        36.000  
 109953393.566 7  85677958.91345  20923444.737    20923434.673          47.000
        37.000  
 114631803.202 7  89157938.135 6  21451758.234    21451751.648          46.000
        44.000    21451758.496
 105194403.790 5  81817834.855 7  19664987.930    19664979.582          36.000
        46.000    19664986.781
 118731720.554 5  92346856.396 5  22226821.484    22226811.379          39.000
        36.000    22226820.453
 126295526.344 5  98229802.304 3  23692717.914    23692707.102          37.000
        30.000    23692717.707
 20  7  1 12 21 60.0000000  0 17G 1G22G 9G 8G 7G 3G 4R 6R18R 5R20G17
                                G11R15R19R16R14
 106163817.715 7  82725109.573 8  20202327.411    20202320.157          49.000
        55.000  
 118866784.192 6  92623346.96044  22619583.535    22619571.755          45.000
        31.000  
 116622818.806 6  90874976.586 7  22192610.546    22192603.588          45.000
        50.000  
 123295922.727 6  96074762.605 7  23462450.537    23462444.935          43.000
        50.000  
 125192241.179 6  97552380.540 5  23823298.142    23823288.318          43.000
        38.000  
 120757376.484 6  94096519.367 7  22979341.906    22979333.944          45.000
        50.000  
 111969316.515 6  87294833.375 8  21280779.708    21247046.995          45.000
        55.000  
 125361448.754 4                  23466504.966                          32.000
                  23466504.404
 121503562.277 6  94502727.310 6  22761711.570    22761705.102          43.000
        41.000    22761710.656
 120804391.741 6  93958913.231 6  22598958.805    22598952.570          43.000
        43.000    22598958.480
 111220858.012 5  86505076.829 7  20798858.891    20798853.125          37.000
        46.000    20798857.625
 126349839.112 5  98454415.718 5  24043584.973    24043575.780          39.000
        37.000  
 109977344.981 7  85696622.34845  20928002.487    20927992.423          47.000
        38.000  
 114615883.340 6  89145556.042 6  21448778.914    21448772.445          45.000
        45.000    21448778.590
 105225577.085 5  81842080.725 7  19670816.188    19670807.137          36.000
        46.000    19670814.570
 118686671.373 5  92311818.139 5  22218388.422    22218379.020          39.000
        37.000    22218387.742
 126317209.170 5  98246666.738 4  23696789.336    23696781.574          38.000
        33.000    23696788.773
 20  7  1 12 22 15.0000000  0 17G 1G22G 9G 8G 7G 3G 4R 6R18R 5R20G17
                                G11R15R19R16R14
 106151783.878 7  82715732.558 8  20200037.575    20200030.380          48.000
        55.000  
 118859523.615 6  92617689.35544  22618202.285    22618190.505          44.000
        32.000  
 116617465.974 6  90870805.562 7  22191592.241    22191584.639          45.000
        50.000  
 123337212.171 6  96106936.186 7  23470308.186    23470301.880          43.000
        50.000  
 125138093.619 6  97510187.629 5  23812994.353    23812984.353          44.000
        37.000  
 120745318.254 6  94087123.346 7  22977047.273    22977039.604          45.000
        50.000  
 111989264.454 7  87310568.066 8  21284466.758    21250594.883          46.000
        55.000  
 125364609.757 4                  23466989.914                          31.000
                  23466988.062
 121566973.260 6  94552046.921 5  22773590.922    22773581.520          43.000
        40.000    22773589.422
 120822661.680 6  93973123.179 6  22602376.516    22602371.336          43.000
        43.000    22602376.543
 111185076.225 5  86477246.618 6  20792165.945    20792160.531          36.000
        45.000    20792165.621
 126329856.137 5  98438844.579 5  24039781.004    24039773.335          37.000
        36.000  
 110001399.778 7  85715366.33545  20932580.542    20932570.009          46.000
        38.000  
 114600073.828 6  89133259.761 6  21445821.313    21445812.496          45.000
        44.000    21445820.047
 105256918.165 5  81866457.103 7  19676673.711    19676665.480          36.000
        46.000    19676672.445
 118641615.954 5  92276775.034 5  22209953.094    22209945.449          39.000
        36.000    22209952.648
 126339021.456 4  98263631.844 4  23700878.922    23700872.219          35.000
        34.000    23700878.832
 20  7  1 12 22 30.0000000  0 18G 1G22G 9G 8G16G 7G 3G 4R 6R18R 5R20
                                G17G11R15R19R16R14
 106139884.676 7  82706460.458 8  20197773.122    20197765.985          48.000
        55.000  
 118852261.727 6  92612030.73244  22616820.316    22616808.009          45.000
        31.000  
 116612197.348 6  90866700.129 7  22190589.218    22190582.025          45.000
        50.000  
 123378472.735 6  96139087.248 7  23478160.092    23478153.318          43.000
        50.000  
 131434204.127 4                  25011118.740                          33.000
                
 125083948.454 6  97467996.585 5  23802690.290    23802680.759          44.000
        37.000  
 120733223.126 6  94077698.553 7  22974746.047    22974737.499          45.000
        50.000  
 112009260.890 6  87326325.013 8  21288171.727    21254172.014          45.000
        55.000  
 125367773.074 4                  23467483.555                          32.000
                  23467480.649
 121630405.407 6  94601382.992 5  22785473.852    22785464.801          42.000
        40.000    22785472.234
 120840878.171 6  93987291.586 6  22605785.617    22605777.973          44.000
        42.000    22605785.293
 111149455.570 5  86449541.601 7  20785505.930    20785500.281          36.000
        46.000    20785504.547
 126309977.188 5  98423354.486 4  24035999.105    24035990.440          38.000
        35.000  
 110025553.886 7  85734187.71445  20937176.886    20937166.411          48.000
        38.000  
 114584371.188 6  89121046.586 6  21442881.969    21442875.500          45.000
        45.000    21442881.645
 105288422.869 5  81890960.779 7  19682564.664    19682555.496          36.000
        46.000    19682562.578
 118596550.996 5  92241724.510 5  22201517.594    22201508.660          39.000
        36.000    22201517.031
 126360959.346 4  98280694.541 4  23704996.078    23704990.195          35.000
        35.000    23704994.344
 20  7  1 12 22 45.0000000  0 18G 1G22G 9G 8G16G 7G 3G 4R 6R18R 5R20
                                G17G11R15R19R16R14
 106128127.534 7  82697299.050 8  20195535.880    20195529.095          49.000
        55.000  
 118845005.984 6  92606376.91944  22615439.418    22615426.994          45.000
        32.000  
 116607019.903 6  90862665.738 7  22189604.397    22189597.381          45.000
        50.000  
 123419711.050 6  96171220.996 7  23486007.522    23486000.689          42.000
        50.000  
 131431793.836 4                  25010658.170                          32.000
                
 125029813.328 6  97425813.361 5  23792388.501    23792379.146          43.000
        36.000  
 120721098.445 6  94068250.740 7  22972437.930    22972430.319          44.000
        50.000  
 112029314.246 7  87342112.729 8  21291896.503    21257777.135          47.000
        55.000  
 125370947.173 4                  23467986.409                          33.000
                  23467985.846
 121693865.571 6  94650740.932 5  22797362.180    22797351.016          42.000
        39.000    22797360.797
 120859048.495 6  94001424.009 6  22609184.477    22609176.715          45.000
        41.000    22609185.090
 111114004.091 5  86421968.179 6  20778874.867    20778869.688          36.000
        45.000    20778875.012
 126290209.810 6  98407951.295 4  24032237.160    24032228.026          41.000
        35.000  
 110049814.380 7  85753091.97745  20941793.605    20941783.365          48.000
        38.000  
 114568783.367 6  89108922.741 6  21439965.102    21439957.813          45.000
        44.000    21439964.656
 105320097.927 5  81915596.923 6  19688484.602    19688476.723          37.000
        45.000    19688484.980
 118551483.933 5  92206672.347 5  22193080.531    22193070.777          39.000
        36.000    22193080.086
 126383029.950 4  98297860.480 4  23709135.406    23709131.168          35.000
        34.000    23709136.371
 20  7  1 12 23  0.0000000  0 18G 1G22G 9G 8G16G 7G 3G 4R 6R18R 5R20
                                G17G11R15R19R16R14
 106116510.082 7  82688246.487 8  20193325.513    20193318.259          49.000
        55.000  
 118837753.874 6  92600725.92244  22614058.910    22614047.130          45.000
        32.000  
 116601930.940 7  90858700.320 7  22188636.476    22188628.463          46.000
        50.000  
 123460924.228 6  96203335.133 7  23493850.100    23493843.970          42.000
        50.000  
 131429363.138 4                  25010195.490                          31.000
                
 124975685.953 6  97383636.178 5  23782088.688    23782079.333          44.000
        37.000  
 120708941.792 6  94058778.014 7  22970124.383    22970117.885          45.000
        50.000  
 112049422.525 6  87357930.838 8  21295636.691    21261409.629          45.000
        55.000  
 125374130.092 4                  23468498.527                          32.000
                  23468495.738
 121757350.628 6  94700118.168 5  22809255.094    22809245.340          42.000
        40.000    22809253.594
 120877169.631 6  94015518.161 6  22612573.438    22612565.793          45.000
        41.000    22612574.168
 111078719.436 5  86394524.583 7  20772277.875    20772271.523          36.000
        46.000    20772277.078
 126270551.541 5  98392633.167 5  24028497.496    24028488.069          40.000
        36.000  
 110074178.496 7  85772077.00045  20946429.784    20946419.486          48.000
        38.000  
 114553307.960 7  89096886.332 6  21437069.555    21437061.090          46.000
        44.000    21437069.465
 105351940.489 5  81940363.392 7  19694438.484    19694428.848          37.000
        46.000    19694436.984
 118506412.843 5  92171617.036 5  22184642.344    22184632.824          39.000
        36.000    22184642.137
 126405230.678 4  98315127.753 4  23713300.211    23713296.441          33.000
        32.000    23713301.059
 20  7  1 12 23 15.0000000  0 17G 1G22G 9G 8G16G 7G 3G 4R 6R18R 5R20
                                G17G11R15R19R16
 106105030.939 7  82679301.690 8  20191140.841    20191133.880          49.000
        55.000  
 118830503.944 7  92595076.62944  22612680.011    22612667.939          46.000
        32.000  
 116596928.671 6  90854802.423 7  22187683.397    22187676.791          44.000
        50.000  
 123502110.575 6  96235428.345 7  23501687.326    23501681.079          42.000
        50.000  
 131426910.380 3                  25009727.858                          29.000
                
 124921565.121 6  97341464.096 5  23771789.735    23771780.615          43.000
        36.000  
 120696751.668 6  94049279.207 7  22967804.820    22967797.796          44.000
        50.000  
 112069585.047 6  87373780.512 8  21299394.777    21265065.797          45.000
        55.000  
 125377321.006 4                  23469015.668                          31.000
                  23469013.933
 121820858.465 6  94749513.139 6  22821151.844    22821144.320          41.000
        41.000    22821150.695
 120895239.812 6  94029572.752 6  22615954.258    22615947.203          45.000
        41.000    22615954.051
 111043600.126 5  86367209.583 7  20765710.688    20765703.633          36.000
        46.000    20765708.836
 126251000.707 5  98377398.780 5  24024777.543    24024767.354          40.000
        38.000  
 110098644.293 7  85791141.25845  20951085.073    20951075.069          47.000
        37.000  
 114537943.911 6  89084936.521 6  21434193.555    21434186.148          45.000
        44.000    21434192.992
 105383948.287 5  81965258.339 7  19700421.680    19700412.629          37.000
        46.000    19700420.063
 118461336.838 5  92136557.924 5  22176204.406    22176193.242          39.000
        37.000    22176202.789
 20  7  1 12 23 30.0000000  0 17G 1G22G 9G 8G16G 7G 3G 4R 6R18R 5R20
                                G17G11R15R19R16
 106093691.984 7  82670466.130 8  20188983.255    20188976.352          48.000
        55.000  
 118823258.295 7  92589430.67644  22611300.941    22611288.927          46.000
        32.000  
 116592014.553 6  90850973.226 7  22186749.413    22186741.400          45.000
        50.000  
 123543271.373 6  96267501.663 7  23509519.584    23509513.279          42.000
        50.000  
 131424437.577 3                  25009256.709                          29.000
                
 124867452.835 6  97299298.672 5  23761493.024    23761483.083          44.000
        36.000  
 120684529.847 6  94039755.696 7  22965478.398    22965471.725          41.000
        50.000  
 112089803.881 6  87389664.356 8  21303167.921    21268744.739          44.000
        55.000  
 125380522.312 4                  23469541.015                          31.000
                  23469539.749
 121884390.314 5  94798926.764 6  22833052.625    22833045.805          40.000
        41.000    22833052.063
 120913260.496 6  94043588.872 6  22619325.547    22619316.613          43.000
        41.000    22619324.516
 111008647.960 5  86340024.613 7  20759173.938    20759168.172          36.000
        46.000    20759173.023
 126231558.961 5  98362249.356 5  24021076.324    24021068.069          38.000
        38.000  
 110123213.273 7  85810285.91445  20955760.698    20955750.401          47.000
        38.000  
 114522693.212 6  89073074.827 6  21431339.898    21431331.785          45.000
        44.000    21431339.336
 105416122.787 5  81990282.910 7  19706435.992    19706427.879          37.000
        46.000    19706435.547
 118416257.689 5  92101496.388 5  22167765.219    22167754.879          38.000
        37.000    22167764.305
 20  7  1 12 23 45.0000000  0 17G 1G22G 9G 8G16G 7G 3G 4R 6R18R 5R20
                                G17G11R15R19R16
 106082492.718 7  82661739.436 8  20186852.099    20186844.786          48.000
        55.000  
 118816016.236 6  92583787.53044  22609922.816    22609910.802          45.000
        31.000  
 116587187.790 6  90847212.129 7  22185829.874    22185822.857          45.000
        50.000  
 123584405.596 6  96299554.291 7  23517347.201    23517341.247          41.000
        50.000  
 131421944.404 4                  25008783.944                          32.000
                
 124813348.811 6  97257139.675 5  23751197.196    23751187.197          44.000
        36.000  
 120672275.796 6  94030207.076 7  22963146.820    22963140.381          41.000
        50.000  
 112110078.846 6  87405583.268 8  21306958.563    21272446.524          45.000
        55.000  
 125383733.263 4                  23470077.406                          32.000
                  23470076.141
 121947944.708 5  94848357.927 6  22844958.695    22844952.109          40.000
        42.000    22844957.078
 120931230.813 6  94057565.731 6  22622687.602    22622679.840          44.000
        41.000    22622686.570
 110973863.104 5  86312969.667 7  20752668.891    20752664.297          37.000
        46.000    20752668.566
 126212225.515 5  98347184.316 5  24017397.809    24017388.792          39.000
        36.000  
 110147884.508 7  85829510.24445  20960455.167    20960445.397          47.000
        37.000  
 114507555.656 6  89061301.182 6  21428507.070    21428499.191          45.000
        44.000    21428506.508
 105448462.711 5  82015436.153 7  19712481.406    19712474.234          37.000
        46.000    19712480.961
 118371175.221 5  92066432.237 5  22159325.664    22159317.785          38.000
        38.000    22159324.984
 20  7  1 12 24  0.0000000  0 17G 1G22G 9G 8G16G 7G 3G 4R 6R18R 5R20
                                G17G11R15R19R16
 106071432.675 7  82653121.226 8  20184746.770    20184740.044          48.000
        55.000  
 118808777.381 7  92578146.86244  22608545.355    22608533.107          46.000
        32.000  
 116582447.436 6  90843518.338 7  22184928.460    22184921.092          44.000
        50.000  
 123625512.267 6  96331585.449 7  23525169.522    23525163.978          42.000
        50.000  
 131419429.971 4                  25008304.483                          33.000
                
 124759252.583 6  97214986.756 5  23740903.016    23740893.369          44.000
        37.000  
 120659988.915 6  94020632.875 7  22960808.601    22960802.221          44.000
        50.000  
 112130409.449 6  87421537.643 8  21310762.999    21276168.779          45.000
        55.000  
 125386953.352 4                  23470616.256                          33.000
                  23470615.577
 122011520.569 5  94897805.792 6  22856867.844    22856861.141          40.000
        42.000    22856866.461
 120949149.722 6  94071502.690 6  22626039.063    22626031.418          44.000
        41.000    22626039.207
 110939244.843 5  86286044.382 7  20746196.273    20746190.273          37.000
        46.000    20746195.242
 126192999.726 5  98332203.196 4  24013738.551    24013730.647          39.000
        35.000  
 110172656.982 7  85848813.45445  20965169.222    20965159.510          47.000
        38.000  
 114492530.899 6  89049615.289 6  21425695.766    21425688.004          45.000
        44.000    21425694.734
 105480966.905 5  82040717.196 6  19718558.305    19718549.254          37.000
        45.000    19718556.688
 118326089.254 5  92031365.355 5  22150886.086    22150876.801          39.000
        38.000    22150885.523
 20  7  1 12 24 15.0000000  0 17G 1G22G 9G 8G16G 7G 3G 4R 6R18R 5R20
                                G17G11R15R19R16
 106060512.419 7  82644611.935 8  20182669.630    20182662.024          49.000
        55.000  
 118801542.242 7  92572509.08044  22607168.043    22607156.732          46.000
        32.000  
 116577793.728 6  90839892.056 7  22184043.726    22184035.303          45.000
        50.000  
 123666591.692 6  96363595.358 7  23532986.928    23532980.388          42.000
        50.000  
 131416895.371 4                  25007822.662                          34.000
                
 124705164.873 6  97172840.484 5  23730610.758    23730600.876          43.000
        38.000  
 120647669.722 6  94011033.494 7  22958464.883    22958457.799          44.000
        50.000  
 112150796.418 7  87437528.848 8  21314583.125    21279911.204          47.000
        55.000  
 125390183.914 4                  23471160.843                          33.000
                  23471160.398
 122075117.807 5  94947270.307 6  22868781.820    22868775.234          40.000
        42.000    22868781.141
 120967017.485 6  94085399.821 6  22629381.969    22629373.855          42.000
        41.000    22629381.406
 110904794.214 5  86259249.430 7  20739753.367    20739748.656          36.000
        46.000    20739752.688
 126173882.005 6  98317306.255 4  24010101.043    24010091.792          42.000
        35.000  
 110197530.948 7  85868195.76145  20969902.808    20969892.861          47.000
        38.000  
 114477619.672 7  89038017.661 6  21422904.531    21422898.063          46.000
        45.000    21422904.910
 105513635.280 5  82066125.944 6  19724665.383    19724656.215          37.000
        45.000    19724664.000
 118281000.728 5  91996296.504 5  22142445.203    22142437.324          38.000
        39.000    22142444.879
 20  7  1 12 24 30.0000000  0 17G 1G22G 9G 8G16G 7G 3G 4R 6R18R 5R20
                                G17G11R15R19R16
 106049732.478 7  82636211.975 8  20180618.083    20180610.595          49.000
        55.000  
 118794311.375 7  92566874.63444  22605792.551    22605781.005          46.000
        32.000  
 116573226.811 6  90836333.401 7  22183174.397    22183166.736          45.000
        50.000  
 123707643.816 6  96395584.021 7  23540798.506    23540793.255          41.000
        50.000  
 131414340.878 5                  25007337.834                          37.000
                
 124651086.388 6  97130701.401 5  23720319.797    23720310.091          41.000
        38.000  
 120635318.662 6  94001409.304 7  22956114.008    22956107.159          44.000
        50.000  
 112171240.151 7  87453557.789 8  21318416.782    21283672.930          46.000
        55.000  
 125393424.793 4                  23471712.141                          32.000
                  23471711.110
 122138736.131 6  94996751.220 6  22880699.383    22880693.500          41.000
        42.000    22880699.645
 120984834.184 6  94099257.190 6  22632715.305    22632707.781          44.000
        41.000    22632715.332
 110870511.505 5  86232585.153 7  20733343.008    20733335.953          37.000
        46.000    20733341.156
 126154872.562 5  98302493.691 4  24006484.254    24006474.651          40.000
        35.000  
 110222506.458 7  85887657.19945  20974655.566    20974645.151          47.000
        38.000  
 114462822.777 6  89026508.959 6  21420135.930    21420128.523          45.000
        44.000    21420134.898
 105546467.687 5  82091662.239 7  19730801.961    19730793.262          37.000
        46.000    19730801.281
 118235910.184 5  91961226.108 5  22134005.539    22133996.254          37.000
        39.000    22134004.156
 20  7  1 12 24 45.0000000  0 17G 1G22G 9G 8G16G 7G 3G 4R 6R18R 5R20
                                G17G11R15R19R16
 106039092.914 7  82627921.405 8  20178593.270    20178586.309          48.000
        55.000  
 118787084.867 7  92561243.58044  22604417.105    22604405.443          46.000
        32.000  
 116568746.292 6  90832842.104 7  22182320.913    22182313.896          45.000
        50.000  
 123748667.885 6  96427550.802 7  23548605.467    23548599.865          42.000
        50.000  
 131411766.523 4                  25006844.858                          33.000
                
 124597017.387 5  97088569.727 5  23710030.000    23710021.056          40.000
        40.000  
 120622935.723 6  93991760.258 7  22953758.242    22953751.276          45.000
        50.000  
 112191740.654 6  87469625.044 8  21322264.662    21287453.074          45.000
        55.000  
 125396676.238 4                  23472269.553                          32.000
                  23472269.932
 122202374.993 5  95046248.096 6  22892621.336    22892613.574          40.000
        42.000    22892621.480
 121002599.454 6  94113074.623 6  22636038.313    22636030.906          43.000
        42.000    22636037.516
 110836397.119 5  86206051.704 7  20726962.852    20726957.086          36.000
        46.000    20726961.586
 126135971.398 6  98287765.520 5  24002887.199    24002878.358          42.000
        36.000  
 110247583.071 7  85907197.40845  20979427.558    20979417.436          48.000
        37.000  
 114448140.521 7  89015089.422 6  21417388.836    21417380.605          46.000
        44.000    21417387.922
 105579463.646 5  82117325.745 6  19736971.414    19736962.246          37.000
        45.000    19736969.445
 118190817.967 5  91926154.383 5  22125562.414    22125555.125          37.000
        40.000    22125563.027
 20  7  1 12 25  0.0000000  0 17G 1G22G 9G 8G16G 7G 3G 4R 6R18R 5R20
                                G17G11R15R19R16
 106028594.222 7  82619740.605 8  20176595.310    20176587.938          48.000
        55.000  
 118779863.257 7  92555616.34044  22603043.746    22603031.556          46.000
        32.000  
 116564352.419 6  90829418.292 7  22181485.312    22181477.768          44.000
        50.000  
 123789664.499 6  96459496.204 7  23556406.514    23556401.439          41.000
        50.000  
 131409173.059 4                  25006351.936                          34.000
                
 124542958.419 5  97046445.881 6  23699742.453    23699734.271          40.000
        41.000  
 120610521.381 6  93982086.732 7  22951395.250    22951388.870          42.000
        50.000  
 112212298.323 7  87485731.526 8  21326126.939    21291251.838          46.000
        55.000  
 125399938.13913                  23472830.955                          30.000
                  23472827.814
 122266034.133 5  95095760.750 6  22904547.258    22904541.023          38.000
        43.000    22904547.402
 121020313.494 6  94126852.169 6  22639351.789    22639345.672          43.000
        42.000    22639351.344
 110802451.441 5  86179649.546 7  20720613.516    20720608.219          36.000
        46.000    20720613.309
 126117178.885 6  98273121.995 5  23999310.973    23999302.249          41.000
        37.000  
 110272760.798 7  85926816.41245  20984219.073    20984208.424          47.000
        38.000  
 114433573.484 7  89003759.493 6  21414662.617    21414654.973          46.000
        44.000    21414661.586
 105612622.921 5  82143116.295 6  19743169.914    19743160.746          37.000
        45.000    19743168.648
 118145724.928 5  91891082.030 5  22117121.609    22117113.262          36.000
        39.000    22117120.461
 20  7  1 12 25 15.0000000  0 18G 1G22G 9G 8G16G 7G 3G 4R 6R18R 5R20
                                G17G11R15R19R16R14
 106018235.365 7  82611668.778 8  20174623.903    20174616.825          48.000
        55.000  
 118772645.385 6  92549992.01944  22601669.636    22601658.033          45.000
        32.000  
 116560043.636 6  90826060.817 7  22180665.585    22180657.924          45.000
        50.000  
 123830631.787 6  96491418.733 7  23564202.365    23564197.349          41.000
        50.000  
 131406559.359 4                  25005855.115                          35.000
                
 124488908.558 5  97004329.114 6  23689458.141    23689448.845          40.000
        41.000  
 120598074.458 6  93972387.835 7  22949026.656    22949020.217          43.000
        50.000  
 112232911.925 7  87501876.642 8  21330002.165    21295066.555          46.000
        55.000  
 125403209.684 3                  23473395.282                          30.000
                  23473394.016
 122329711.685 5  95145287.694 6  22916475.367    22916469.602          38.000
        43.000    22916475.160
 121037974.597 6  94140588.567 6  22642655.344    22642649.813          43.000
        44.000    22642654.547
 110768673.888 5  86153378.107 7  20714297.297    20714292.469          36.000
        46.000    20714295.914
 126098493.658 6  98258562.052 5  23995754.926    23995746.729          41.000
        38.000  
 110298038.167 7  85946513.05545  20989029.011    20989018.479          48.000
        38.000  
 114419120.901 6  88992518.585 6  21411957.234    21411950.414          45.000
        43.000    21411957.145
 105645943.566 5  82169032.377 7  19749400.070    19749389.965          37.000
        46.000    19749397.516
 118100630.121 5  91856008.353 5  22108679.641    22108671.645          38.000
        39.000    22108679.195
 126610949.16113  98475065.23813  23751882.148    23751863.594          30.000
        26.000    23751879.711
 20  7  1 12 25 30.0000000  0 18G 1G22G 9G 8G16G 7G 3G 4R 6R18R 5R20
                                G17G11R15R19R16R14
 106008018.464 7  82603707.551 8  20172680.013    20172673.169          49.000
        55.000  
 118765433.405 6  92544372.30444  22600296.558    22600285.189          45.000
        32.000  
 116555821.752 7  90822771.026 7  22179862.983    22179855.088          46.000
        50.000  
 123871571.484 6  96523319.793 7  23571993.404    23571986.923          41.000
        50.000  
 131403927.522 4                  25005353.381                          33.000
                
 124434870.228 6  96962221.343 6  23679175.578    23679165.814          41.000
        41.000  
 120585597.051 6  93962665.187 7  22946652.211    22946646.065          44.000
        50.000  
 112253583.408 7  87518062.443 8  21333892.097    21298898.357          46.000
        55.000  
 125406492.751 4                  23473967.628                          31.000
                  23473966.831
 122393409.269 5  95194830.192 6  22928409.805    22928401.457          38.000
        43.000    22928407.484
 121055584.531 6  94154285.198 6  22645949.859    22645943.391          44.000
        43.000    22645949.887
 110735066.674 5  86127239.171 6  20708012.563    20708006.094          36.000
        45.000    20708010.945
 126079917.565 5  98244087.168 5  23992220.730    23992212.182          40.000
        38.000  
 110323417.012 7  85966288.77145  20993858.792    20993848.143          48.000
        38.000  
 114404785.196 6  88981368.604 6  21409274.781    21409267.492          45.000
        44.000    21409274.457
 105679427.378 5  82195075.300 6  19755659.039    19755650.223          37.000
        45.000    19755657.422
 118055536.240 5  91820935.321 5  22100237.680    22100228.863          38.000
        39.000    22100237.707
 126634441.121 4  98493336.785 3  23756282.742    23756271.461          32.000
        30.000    23756280.773
 20  7  1 12 25 45.0000000  0 18G 1G22G 9G 8G16G 7G 3G 4R 6R18R 5R20
                                G17G11R15R19R16R14
 105997942.657 7  82595856.272 8  20170762.700    20170755.329          49.000
        55.000  
 118758226.505 7  92538756.54144  22598925.043    22598913.790          46.000
        32.000  
 116551685.548 6  90819548.006 7  22179074.733    22179067.424          45.000
        50.000  
 123912482.272 5  96555198.311 7  23579776.904    23579772.064          39.000
        50.000  
 131401277.161 4                  25004849.686                          33.000
                
 124380842.754 5  96920122.024 6  23668894.047    23668884.693          40.000
        41.000  
 120573088.196 6  93952918.045 7  22944271.773    22944265.862          44.000
        50.000  
 112274311.541 7  87534288.068 8  21337793.428    21302746.751          46.000
        55.000  
 125409785.98513                  23474544.646                          29.000
                  23474542.560
 122457125.082 5  95244386.880 6  22940345.461    22940337.699          38.000
        43.000    22940344.781
 121073142.092 6  94167941.049 6  22649233.422    22649228.008          43.000
        43.000    22649233.566
 110701628.837 5  86101231.952 7  20701760.430    20701754.078          36.000
        46.000    20701758.461
 126061449.573 6  98229696.538 5  23988707.082    23988697.538          43.000
        37.000  
 110348896.075 7  85986142.58045  20998706.776    20998696.420          48.000
        37.000  
 114390565.491 6  88970308.839 6  21406613.750    21406606.813          45.000
        44.000    21406613.543
 105713072.747 5  82221243.912 6  19761948.156    19761938.871          36.000
        45.000    19761946.656
 118010442.465 5  91785862.392 5  22091797.430    22091787.441          38.000
        38.000    22091796.047
 126658062.247 3  98511708.722 4  23760711.875    23760704.469          30.000
        31.000    23760710.141
 20  7  1 12 26  0.0000000  0 18G 1G22G 9G 8G16G 7G 3G 4R 6R18R 5R20
                                G17G11R15R19R16R14
 105988007.658 7  82588114.712 8  20168872.310    20168865.115          49.000
        55.000  
 118751024.382 6  92533144.50244  22597554.605    22597543.587          45.000
        32.000  
 116547634.289 6  90816391.168 7  22178303.108    22178296.736          44.000
        50.000  
 123953363.331 5  96587053.636 7  23587558.279    23587552.033          40.000
        50.000  
 131398607.410 4                  25004342.139                          31.000
                
 124326825.774 5  96878030.898 6  23658614.938    23658605.583          39.000
        42.000  
 120560547.570 6  93943146.119 7  22941885.812    22941879.491          44.000
        50.000  
 112295095.907 7  87550553.776 8  21341708.365    21306610.026          46.000
        55.000  
 125413088.998 3                  23475123.873                          30.000
                  23475121.553
 122520858.240 5  95293957.066 6  22952283.844    22952277.609          38.000
        43.000    22952283.637
 121090646.581 6  94181555.639 6  22652509.375    22652502.555          44.000
        42.000    22652508.344
 110668360.530 5  86075356.607 7  20695537.898    20695532.016          36.000
        46.000    20695537.453
 126043089.254 5  98215389.781 5  23985211.769    23985203.514          40.000
        36.000  
 110374474.455 7  86006073.77945  21003574.511    21003563.334          48.000
        37.000  
 114376461.799 7  88959339.300 6  21403974.602    21403965.902          46.000
        43.000    21403974.395
 105746878.652 5  82247537.367 6  19768267.055    19768258.590          36.000
        45.000    19768266.023
 117965348.783 5  91750789.496 5  22083355.992    22083346.238          39.000
        38.000    22083354.492
 126681811.505 4  98530180.246 3  23765165.367    23765158.664          34.000
        30.000    23765164.688
 20  7  1 12 26 15.0000000  0 18G 1G22G 9G 8G16G 7G 3G 4R 6R18R 5R20
                                G17G11R15R19R16R14
 105978214.540 7  82580483.711 8  20167008.411    20167001.217          50.000
        55.000  
 118743828.074 6  92527536.99844  22596185.277    22596173.790          45.000
        31.000  
 116543668.716 6  90813301.095 7  22177548.937    22177542.037          45.000
        50.000  
 123994215.396 5  96618886.403 7  23595330.686    23595325.318          39.000
        50.000  
 131395919.549 4                  25003830.483                          32.000
                
 124272820.603 5  96835948.983 6  23648337.953    23648329.068          40.000
        43.000  
 120547976.156 6  93933350.221 7  22939493.234    22939487.264          43.000
        50.000  
 112315937.247 7  87566860.345 8  21345636.530    21310489.179          46.000
        55.000  
 125416402.61713                  23475707.467                          30.000
                  23475705.967
 122584609.042 5  95343541.000 6  22964226.172    22964220.055          39.000
        42.000    22964226.199
 121108098.725 6  94195129.452 6  22655774.406    22655767.352          44.000
        43.000    22655773.141
 110635262.681 5  86049613.863 7  20689348.578    20689343.047          37.000
        46.000    20689347.664
 126024837.445 5  98201167.582 5  23981738.574    23981729.616          40.000
        38.000  
 110400152.895 7  86026082.93045  21008460.878    21008449.819          48.000
        37.000  
 114362475.359 6  88948460.966 6  21401356.977    21401349.453          45.000
        44.000    21401357.121
 105780845.461 5  82273956.024 6  19774618.555    19774609.387          36.000
        45.000    19774616.117
 117920256.601 5  91715717.828 5  22074913.602    22074903.379          39.000
        36.000    22074912.688
 126705689.726 5  98548752.155 4  23769644.688    23769636.809          36.000
        31.000    23769645.535
 20  7  1 12 26 30.0000000  0 18G 1G22G 9G 8G16G 7G 3G 4R 6R18R 5R20
                                G17G11R15R19R16R14
 105968562.969 7  82572963.017 8  20165171.669    20165164.709          49.000
        55.000  
 118736637.361 6  92521933.83544  22594817.863    22594805.380          45.000
        32.000  
 116539788.120 7  90810277.246 7  22176811.147    22176803.603          46.000
        50.000  
 124035037.592 5  96650695.878 7  23603097.873    23603093.091          38.000
        50.000  
 131393213.455 4                  25003317.420                          34.000
                
 124218827.115 6  96793876.164 6  23638063.930    23638054.341          42.000
        43.000  
 120535373.637 6  93923530.097 7  22937096.164    22937088.963          45.000
        50.000  
 112336834.886 7  87583207.498 8  21349577.147    21314383.427          46.000
        55.000  
 125419725.77513                  23476291.295                          29.000
                  23476290.733
 122648376.635 5  95393137.944 6  22976172.906    22976163.738          39.000
        41.000    22976172.816
 121125497.681 6  94208662.045 6  22659028.727    22659020.730          45.000
        41.000    22659027.695
 110602335.386 5  86024003.715 7  20683191.953    20683185.250          37.000
        46.000    20683190.102
 126006693.735 5  98187029.615 5  23978285.613    23978277.007          40.000
        37.000  
 110425930.512 7  86046169.37845  21013365.855    21013355.615          47.000
        38.000  
 114348606.127 6  88937673.787 6  21398761.516    21398754.930          45.000
        44.000    21398761.309
 105814972.288 5  82300499.069 6  19780996.805    19780988.105          36.000
        45.000    19780994.836
 117875165.771 5  91680647.155 5  22066472.078    22066461.973          39.000
        37.000    22066471.164
 126729696.542 5  98567424.081 4  23774150.688    23774140.230          37.000
        32.000    23774150.125
 20  7  1 12 26 45.0000000  0 18G 1G22G 9G 8G16G 7G 3G 4R 6R18R 5R20
                                G17G11R15R19R16R14
 105959052.958 7  82565552.616 8  20163361.903    20163354.767          49.000
        55.000  
 118729452.206 6  92516335.01444  22593450.293    22593438.396          45.000
        31.000  
 116535992.097 6  90807319.309 7  22176088.077    22176080.709          45.000
        50.000  
 124075829.231 5  96682481.532 7  23610862.779    23610855.888          39.000
        50.000  
 131390489.117 4                  25002798.686                          32.000
                
 124164845.414 6  96751812.511 6  23627791.813    23627782.107          43.000
        43.000  
 120522739.928 6  93913685.674 7  22934691.164    22934685.311          43.000
        50.000  
 112357788.446 7  87599595.139 8  21353530.045    21318293.036          46.000
        55.000  
 125423058.47113                  23476885.436                          28.000
                  23476882.998
 122712160.129 5  95442747.299 6  22988122.930    22988113.527          40.000
        41.000    22988121.547
 121142843.162 6  94222152.938 5  22662274.203    22662264.684          45.000
        40.000    22662273.406
 110569578.255 5  85998525.966 7  20677065.383    20677061.027          36.000
        47.000    20677065.176
 125988657.813 5  98172975.637 5  23974853.629    23974844.671          40.000
        38.000  
 110451806.870 7  86066332.77645  21018290.448    21018279.565          48.000
        38.000  
 114334854.244 6  88926977.863 6  21396188.453    21396179.988          45.000
        43.000    21396187.422
 105849258.601 5  82327166.202 6  19787406.281    19787398.168          37.000
        45.000    19787404.898
 117830076.471 5  91645577.716 5  22058032.094    22058021.520          40.000
        36.000    22058031.063
 126753831.535 5  98586195.744 3  23778677.641    23778665.188          37.000
        28.000    23778676.258
 20  7  1 12 27  0.0000000  0 17G 1G22G 9G 8G16G 7G 3G 4R18R 5R20G17
                                G11R15R19R16R14
 105949685.380 7  82558253.204 8  20161579.044    20161572.435          49.000
        55.000  
 118722273.510 6  92510741.21944  22592083.879    22592073.095          44.000
        31.000  
 116532281.218 7  90804427.703 8  22175382.812    22175375.502          46.000
        55.000  
 124116591.086 5  96714243.986 7  23618617.772    23618612.638          36.000
        50.000  
 131387747.505 4                  25002275.084                          32.000
                
 124110876.547 6  96709758.857 6  23617521.422    23617512.126          43.000
        43.000  
 120510075.811 6  93903817.546 7  22932281.430    22932274.756          44.000
        50.000  
 112378798.631 7  87616024.208 7  21357495.557    21322215.253          46.000
        50.000  
 122775959.735 6  95492369.188 5  23000075.203    23000064.980          41.000
        40.000    23000073.586
 121160135.631 6  94235602.613 5  22665508.703    22665499.652          45.000
        40.000    22665507.789
 110536992.833 5  85973181.755 7  20670971.906    20670966.492          37.000
        47.000    20670970.758
 125970730.371 5  98159006.168 5  23971442.730    23971434.534          40.000
        38.000  
 110477782.575 7  86086573.57645  21023233.198    21023222.490          48.000
        38.000  
 114321220.908 6  88916374.167 6  21393636.711    21393629.066          45.000
        44.000    21393636.738
 105883704.469 5  82353957.434 7  19793845.523    19793837.410          36.000
        46.000    19793843.789
 117784990.260 5  91610510.637 5  22049592.313    22049582.207          40.000
        37.000    22049590.344
 126778095.580 5  98605067.730 4  23783232.516    23783219.242          38.000
        31.000    23783231.836
 20  7  1 12 27 15.0000000  0 18G 1G22G 9G 8G16G 7G 3G 4R 6R18R 5R20
                                G17G11R15R19R16R14
 105940460.159 7  82551064.721 8  20159823.974    20159816.428          49.000
        55.000  
 118715101.204 6  92505152.40844  22590718.511    22590707.494          44.000
        31.000  
 116528654.963 6  90801602.040 7  22174691.983    22174685.377          45.000
        50.000  
 124157322.606 5  96745982.793 7  23626369.381    23626364.423          37.000
        50.000  
 131384988.394 4                  25001749.514                          31.000
                
 124056920.548 6  96667715.230 6  23607253.164    23607244.806          42.000
        43.000  
 120497381.183 6  93893925.639 7  22929865.484    22929859.397          43.000
        50.000  
 112399864.839 7  87632494.250 7  21361473.166    21326152.349          46.000
        50.000  
 125429753.214 3                  23478073.338                          28.000
                  23478073.600
 122839774.690 5  95542003.026 5  23012026.914    23012018.684          40.000
        40.000    23012027.645
 121177374.571 6  94249010.674 6  22668732.828    22668726.242          45.000
        41.000    22668732.383
 110504578.792 5  85947970.804 7  20664912.125    20664904.363          36.000
        46.000    20664909.805
 125952911.183 5  98145121.087 5  23968051.754    23968043.557          39.000
        37.000  
 110503856.892 7  86106891.21745  21028195.066    21028184.533          48.000
        38.000  
 114307706.186 6  88905862.704 6  21391108.031    21391100.859          45.000
        45.000    21391107.586
 105918309.238 5  82380872.235 6  19800313.789    19800305.441          36.000
        45.000    19800312.523
 117739907.011 5  91575445.909 5  22041151.000    22041142.535          40.000
        37.000    22041151.262
 126802488.136 5  98624039.711 4  23787807.766    23787796.953          38.000
        32.000    23787806.383
 20  7  1 12 27 30.0000000  0 18G 1G22G 9G 8G16G 7G 3G 4R 6R18R 5R20
                                G17G11R15R19R16R14
 105931377.577 7  82543987.388 8  20158095.794    20158089.010          50.000
        55.000  
 118707935.729 6  92499568.90544  22589355.777    22589343.646          45.000
        31.000  
 116525113.243 6  90798842.270 7  22174018.366    22174010.294          44.000
        50.000  
 124198023.408 5  96777697.681 6  23634115.537    23634108.411          39.000
        45.000  
 131382212.84913                  25001222.756                          30.000
                
 124002977.934 6  96625682.049 6  23596988.789    23596980.021          43.000
        42.000  
 120484656.384 6  93884010.215 7  22927444.344    22927438.491          44.000
        50.000  
 112420987.033 7  87649005.444 7  21365462.841    21330104.093          47.000
        50.000  
 125433114.863 3                  23478673.801                          28.000
                  23478674.415
 122903604.844 6  95591648.680 5  23023986.828    23023977.777          41.000
        39.000    23023985.445
 121194559.916 6  94262377.053 6  22671948.531    22671942.063          45.000
        41.000    22671947.383
 110472336.832 5  85922893.767 7  20658880.594    20658874.828          36.000
        46.000    20658878.859
 125935200.434 5  98131320.498 5  23964680.980    23964672.901          38.000
        37.000  
 110530029.874 7  86127285.74345  21033175.667    21033164.666          48.000
        37.000  
 114294310.443 6  88895443.805 6  21388601.086    21388593.563          45.000
        45.000    21388600.406
 105953072.400 5  82407910.232 7  19806813.203    19806805.680          36.000
        46.000    19806812.055
 117694827.436 5  91540383.984 5  22032712.883    22032702.895          40.000
        37.000    22032712.203
 126827009.178 5  98643111.680 4  23792407.594    23792395.023          38.000
        33.000    23792407.973
 20  7  1 12 27 45.0000000  0 18G 1G22G 9G 8G16G 7G 3G 4R 6R18R 5R20
                                G17G11R15R19R16R14
 105922437.859 7  82537021.369 8  20156394.794    20156388.010          50.000
        55.000  
 118700777.196 7  92493990.83544  22587993.410    22587980.927          46.000
        31.000  
 116521655.953 6  90796148.262 7  22173359.983    22173352.263          45.000
        50.000  
 124238693.294 5  96809388.489 6  23641853.983    23641848.497          38.000
        45.000  
 131379419.56513                  25000689.600                          30.000
                
 123949049.122 6  96583659.609 6  23586725.453    23586717.212          44.000
        43.000  
 120471901.477 6  93874071.348 7  22925016.539    22925011.038          44.000
        50.000  
 112442165.067 7  87665557.805 7  21369463.766    21334068.659          47.000
        50.000  
 125436485.423 3                  23479277.469                          29.000
                  23479277.379
 122967449.514 6  95641305.626 5  23035946.680    23035938.215          41.000
        40.000    23035946.824
 121211691.455 6  94275701.581 6  22675153.344    22675146.406          44.000
        41.000    22675152.313
 110440267.036 5  85897950.560 7  20652884.180    20652877.711          37.000
        46.000    20652883.734
 125917597.912 5  98117604.250 5  23961331.215    23961322.960          38.000
        37.000  
 110556301.150 7  86147756.84945  21038173.933    21038164.514          47.000
        37.000  
 114281034.319 7  88885117.935 6  21386117.031    21386110.094          46.000
        45.000    21386116.352
 105987993.513 5  82435071.100 6  19813341.680    19813332.395          36.000
        45.000    19813339.477
 117649751.971 5  91505325.275 5  22024273.422    22024262.609          39.000
        37.000    22024272.859
 126851658.932 4  98662283.653 4  23797029.867    23797020.699          35.000
        34.000    23797029.188
 20  7  1 12 28  0.0000000  0 18G 1G22G 9G 8G16G 7G 3G 4R 6R18R 5R20
                                G17G11R15R19R16R14
 105913640.821 7  82530166.528 8  20154720.614    20154713.830          50.000
        55.000  
 118693625.482 6  92488418.06844  22586632.355    22586619.931          45.000
        31.000  
 116518282.526 7  90793519.598 7  22172718.460    22172710.974          46.000
        50.000  
 124279331.616 5  96841054.677 6  23649587.897    23649581.415          38.000
        45.000  
 131376609.822 4                  25000156.256                          32.000
                
 123895134.043 6  96541647.862 6  23576466.586    23576457.759          45.000
        42.000  
 120459116.244 6  93864108.839 7  22922584.203    22922578.057          43.000
        50.000  
 112463398.364 7  87682151.123 7  21373477.388    21338047.121          47.000
        50.000  
 125439864.64113                  23479879.169                          28.000
                  23479879.548
 123031307.586 5  95690972.973 5  23047909.875    23047901.762          40.000
        40.000    23047908.727
 121228768.707 6  94288983.886 6  22678347.523    22678341.641          44.000
        41.000    22678346.375
 110408369.479 5  85873141.362 7  20646919.391    20646912.805          37.000
        46.000    20646917.891
 125900103.303 5  98103972.103 5  23958002.332    23957994.019          40.000
        36.000  
 110582670.090 7  86168304.06045  21043192.636    21043182.104          48.000
        38.000  
 114267877.783 7  88874885.028 6  21383654.984    21383646.988          46.000
        44.000    21383654.422
 106023071.974 5  82462354.324 6  19819898.844    19819890.965          36.000
        45.000    19819898.047
 117604680.761 5  91470269.885 5  22015837.602    22015827.848          38.000
        38.000    22015836.453
 126876436.511 4  98681555.208 5  23801675.742    23801669.391          33.000
        36.000    23801674.242
 20  7  1 12 28 15.0000000  0 18G 1G22G 9G 8G16G 7G 3G 4R 6R18R 5R20
                                G17G11R15R19R16R14
 105904986.584 7  82523422.973 8  20153074.278    20153066.732          50.000
        55.000  
 118686480.655 6  92482850.66244  22585272.801    22585260.494          44.000
        31.000  
 116514992.664 6  90790956.061 7  22172092.319    22172085.243          45.000
        50.000  
 124319938.219 5  96872696.148 6  23657313.889    23657309.517          38.000
        45.000  
 131373783.241 4                  24999618.490                          33.000
                
 123841232.931 6  96499646.998 6  23566209.555    23566200.552          44.000
        42.000  
 120446300.782 6  93854122.779 7  22920144.351    22920139.319          43.000
        50.000  
 112484686.624 7  87698785.223 7  21377501.878    21342038.893          46.000
        50.000  
 125443252.10612                  23480490.011                          25.000
                  23480488.863
 123095178.779 5  95740650.535 5  23059874.469    23059865.887          40.000
        39.000    23059873.906
 121245791.282 6  94302223.625 5  22681532.539    22681525.016          43.000
        40.000    22681532.094
 110376644.603 5  85848466.459 7  20640985.320    20640980.023          36.000
        46.000    20640985.113
 125882716.609 5  98090424.025 5  23954694.379    23954685.480          40.000
        37.000  
 110609136.401 7  86188927.15545  21048229.097    21048218.624          47.000
        38.000  
 114254840.990 6  88864745.319 6  21381214.813    21381206.816          45.000
        44.000    21381214.723
 106058306.937 5  82489759.301 6  19826485.797    19826476.863          36.000
        45.000    19826484.180
 117559614.111 5  91435218.031 5  22007399.516    22007391.992          38.000
        38.000    22007399.070
 126901342.322 5  98700926.336 5  23806352.406    23806343.355          36.000
        36.000    23806350.555
 20  7  1 12 28 30.0000000  0 17G 1G22G 9G 8G16G 7G 3G 4R18R 5R20G17
                                G11R15R19R16R14
 105896475.749 7  82516791.150 8  20151454.583    20151447.447          50.000
        55.000  
 118679343.360 6  92477289.12144  22583914.910    22583902.662          45.000
        32.000  
 116511786.650 6  90788457.858 7  22171481.624    22171474.431          45.000
        50.000  
 124360513.205 5  96904313.007 6  23665036.045    23665029.622          39.000
        45.000  
 131370940.588 4                  24999077.201                          32.000
                
 123787346.623 6  96457657.679 6  23555954.899    23555945.837          44.000
        41.000  
 120433455.631 6  93844113.586 7  22917701.047    22917694.198          44.000
        50.000  
 112506030.079 7  87715460.475 7  21381538.141    21346042.672          46.000
        50.000  
 123159062.996 6  95790338.228 5  23071842.867    23071833.582          41.000
        38.000    23071841.250
 121262759.479 6  94315421.119 6  22684705.922    22684698.750          43.000
        41.000    22684705.715
 110345092.801 5  85823926.148 7  20635084.445    20635079.500          36.000
        46.000    20635084.355
 125865438.203 5  98076960.337 5  23951405.973    23951397.777          39.000
        37.000  
 110635700.327 7  86209626.30045  21053284.362    21053273.714          49.000
        38.000  
 114241924.888 7  88854699.462 6  21378798.625    21378789.809          46.000
        43.000    21378798.063
 106093698.427 5  82517286.010 6  19833101.867    19833092.699          36.000
        45.000    19833100.953
 117514553.118 5  91400170.622 5  21998964.969    21998954.746          39.000
        39.000    21998963.352
 126926376.243 5  98720397.230 5  23811046.430    23811039.844          38.000
        36.000    23811046.691
 20  7  1 12 28 45.0000000  0 17G 1G22G 9G 8G16G 7G 3G 4R18R 5R20G17
                                G11R15R19R16R14
 105888108.062 7  82510270.881 8  20149861.817    20149854.682          49.000
        55.000  
 118672213.424 6  92471733.32144  22582558.636    22582546.622          45.000
        32.000  
 116508663.824 7  90786024.485 7  22170887.866    22170880.556          46.000
        50.000  
 124401055.864 5  96935904.664 6  23672751.131    23672744.357          39.000
        45.000  
 131368081.852 4                  24998535.123                          33.000
                
 123733475.005 6  96415679.810 5  23545703.821    23545694.408          43.000
        40.000  
 120420580.554 6  93834081.059 7  22915250.734    22915244.413          43.000
        50.000  
 112527428.070 7  87732176.479 8  21385586.136    21350059.653          47.000
        55.000  
 123222959.231 5  95840035.284 5  23083811.859    23083804.453          40.000
        37.000    23083811.652
 121279672.688 6  94328575.819 5  22687871.039    22687861.285          44.000
        39.000    22687870.125
 110313714.089 5  85799520.525 7  20629216.922    20629211.977          36.000
        46.000    20629217.066
 125848267.600 5  98063580.648 5  23948138.613    23948130.183          38.000
        38.000  
 110662361.246 7  86230401.04545  21058357.425    21058346.835          48.000
        38.000  
 114229129.467 7  88844747.472 6  21376403.773    21376395.426          46.000
        44.000    21376403.801
 106129245.557 5  82544933.749 6  19839747.133    19839738.082          36.000
        45.000    19839745.164
 117469497.562 5  91365127.392 5  21990531.281    21990521.996          39.000
        39.000    21990530.602
 126951538.196 5  98739967.623 4  23815767.531    23815757.777          38.000
        34.000    23815768.027
 20  7  1 12 29  0.0000000  0 17G 1G22G 9G 8G16G 7G 3G 4R18R 5R20G17
                                G11R15R19R16R14
 105879883.689 7  82503862.281 8  20148296.911    20148289.951          48.000
        55.000  
 118665091.077 7  92466183.44044  22581203.340    22581191.619          46.000
        33.000  
 116505624.038 7  90783655.814 7  22170309.499    22170302.071          46.000
        50.000  
 124441566.113 6  96967471.095 6  23680460.303    23680453.587          41.000
        45.000  
 131365207.06814                  24997986.975                          32.000
                
 123679618.404 6  96373713.622 5  23535454.836    23535445.540          44.000
        40.000  
 120407675.646 6  93824025.296 7  22912795.828    22912789.565          44.000
        50.000  
 112548880.330 7  87748933.096 8  21389645.774    21354089.378          47.000
        55.000  
 123286867.036 6  95889741.356 5  23095784.773    23095775.605          41.000
        37.000    23095784.211
 121296530.752 6  94341687.622 5  22691024.406    22691016.059          43.000
        40.000    22691023.961
 110282508.671 5  85775249.658 7  20623381.891    20623377.414          36.000
        47.000    20623381.566
 125831204.698 5  98050284.881 5  23944891.504    23944882.898          38.000
        38.000  
 110689118.851 7  86251251.12145  21063449.433    21063438.550          48.000
        38.000  
 114216455.125 7  88834889.661 6  21374032.086    21374024.441          46.000
        45.000    21374032.230
 106164947.933 5  82572702.245 6  19846420.094    19846412.449          36.000
        45.000    19846420.121
 117424447.934 5  91330088.817 5  21982096.852    21982088.035          38.000
        39.000    21982095.938
 126976827.755 5  98759637.254 4  23820511.492    23820501.855          38.000
        34.000    23820510.578
 20  7  1 12 29 15.0000000  0 17G 1G22G 9G 8G16G 7G 3G 4R18R 5R20G17
                                G11R15R19R16R14
 105871803.324 7  82497565.890 8  20146759.411    20146752.568          49.000
        55.000  
 118657977.063 6  92460640.04844  22579848.355    22579837.279          44.000
        32.000  
 116502667.583 6  90781352.075 7  22169746.022    22169739.532          45.000
        50.000  
 124482044.083 6  96999012.331 7  23688162.787    23688157.595          42.000
        50.000  
 131362316.977 4                  24997438.022                          33.000
                
 123625777.777 6  96331759.887 5  23525209.789    23525199.790          44.000
        40.000  
 120394741.589 6  93813946.841 7  22910334.890    22910327.749          45.000
        50.000  
 112570387.127 7  87765730.646 8  21393715.746    21358130.585          46.000
        55.000  
 123350786.404 6  95939456.427 5  23107759.281    23107751.875          41.000
        37.000    23107758.602
 121313333.949 6  94354756.750 5  22694166.266    22694159.797          42.000
        39.000    22694166.293
 110251477.385 5  85751114.214 7  20617578.563    20617574.324          36.000
        47.000    20617577.531
 125814250.229 5  98037073.617 5  23941665.137    23941656.824          38.000
        39.000  
 110715973.355 7  86272176.69545  21068559.418    21068548.945          48.000
        37.000  
 114203902.725 6  88825126.675 6  21371682.547    21371674.785          45.000
        45.000    21371682.340
 106200805.443 5  82600591.408 6  19853123.961    19853115.262          36.000
        45.000    19853122.227
 117379405.302 5  91295055.665 5  21973665.398    21973655.645          38.000
        39.000    21973664.250
 127002245.607 5  98779406.665 4  23825279.977    23825269.047          39.000
        34.000    23825280.941
 20  7  1 12 29 30.0000000  0 17G 1G22G 9G 8G16G 7G 3G 4R18R 5R20G17
                                G11R15R19R16R14
 105863866.363 7  82491381.246 8  20145248.942    20145241.514          50.000
        55.000  
 118650870.789 6  92455102.68644  22578496.636    22578485.619          45.000
        31.000  
 116499793.440 6  90779112.472 7  22169200.155    22169192.552          45.000
        50.000  
 124522488.562 6  97030527.506 7  23695859.069    23695853.876          42.000
        50.000  
 131359411.037 4                  24996886.326                          34.000
                
 123571952.632 6  96289818.205 5  23514967.485    23514957.603          44.000
        40.000  
 120381777.722 6  93803845.138 7  22907866.836    22907859.987          44.000
        50.000  
 112591947.413 7  87782568.361 8  21397797.332    21362185.158          47.000
        55.000  
 123414715.871 6  95989179.355 5  23119734.945    23119727.184          41.000
        36.000    23119735.090
 121330081.108 6  94367782.339 6  22697299.781    22697294.016          43.000
        41.000    22697298.750
 110220619.892 5  85727113.908 7  20611807.648    20611802.938          36.000
        46.000    20611807.324
 125797403.292 5  98023946.130 5  23938459.441    23938451.305          38.000
        37.000  
 110742923.601 7  86293176.88545  21073687.684    21073677.679          48.000
        38.000  
 114191471.767 6  88815458.135 6  21369356.758    21369348.527          45.000
        44.000    21369355.844
 106236816.895 5  82628600.317 6  19859857.000    19859846.895          36.000
        45.000    19859854.445
 117334369.490 5  91260027.861 5  21965234.641    21965225.238          38.000
        40.000    21965233.609
 127027790.705 5  98799275.045 4  23830071.703    23830061.598          39.000
        34.000    23830071.141
 20  7  1 12 29 45.0000000  0 17G 1G22G 9G 8G16G 7G 3G 4R18R 5R20G17
                                G11R15R19R16R14
 105856073.685 7  82485309.030 8  20143766.177    20143759.041          49.000
        55.000  
 118643773.238 6  92449572.11144  22577144.597    22577134.283          44.000
        32.000  
 116497002.226 6  90776937.485 7  22168669.257    22168662.063          45.000
        50.000  
 124562899.964 6  97062016.897 6  23703550.006    23703542.880          42.000
        45.000  
 131356490.88213                  24996327.365                          29.000
                
 123518144.051 6  96247889.442 5  23504727.875    23504718.345          43.000
        40.000  
 120368784.950 6  93793720.901 7  22905394.531    22905387.741          44.000
        50.000  
 112613561.685 7  87799446.778 7  21401889.779    21366251.066          47.000
        50.000  
 123478655.831 5  96038910.394 5  23131713.734    23131703.980          40.000
        37.000    23131712.703
 121346772.986 6  94380764.845 6  22700422.023    22700416.258          42.000
        41.000    22700421.578
 110189937.139 5  85703249.546 7  20606069.875    20606063.992          37.000
        46.000    20606069.313
 125780664.532 5  98010902.969 5  23935274.707    23935266.160          39.000
        37.000  
 110769970.275 7  86314252.18745  21078834.551    21078824.312          48.000
        37.000  
 114179163.329 7  88805884.907 6  21367053.359    21367044.895          46.000
        44.000    21367052.445
 106272982.550 5  82656729.163 7  19866618.078    19866609.027          36.000
        46.000    19866615.992
 117289341.575 5  91225006.150 5  21956804.375    21956796.262          38.000
        40.000    21956804.051
 127053463.793 5  98819242.995 4  23834890.266    23834882.504          39.000
        35.000    23834888.648
 20  7  1 12 30  0.0000000  0 17G 1G22G 9G 8G16G 7G 3G 4R18R 5R20G17
                                G11R15R19R16R14
 105848430.041 7  82479352.940 8  20142311.692    20142304.557          49.000
        55.000  
 118636689.047 6  92444051.96344  22575797.238    22575786.162          44.000
        31.000  
 116494298.187 6  90774830.438 7  22168154.562    22168147.017          45.000
        50.000  
 124603282.742 6  97093483.970 6  23711233.834    23711228.701          42.000
        45.000  
 131353559.43613                  24995769.092                          30.000
                
 123464356.822 6  96205977.332 5  23494492.274    23494483.330          42.000
        40.000  
 120355767.940 6  93783577.776 7  22902918.015    22902911.811          45.000
        50.000  
 112635234.206 7  87816369.256 7  21405994.494    21370330.152          46.000
        50.000  
 123542610.497 5  96088652.851 5  23143693.695    23143686.051          39.000
        38.000    23143693.016
 121363413.894 6  94393707.798 6  22703536.344    22703529.758          44.000
        42.000    22703536.488
 110159434.020 5  85679524.907 7  20600367.039    20600361.039          36.000
        46.000    20600366.242
 125764038.278 5  97997947.424 5  23932109.730    23932102.297          37.000
        36.000  
 110797117.466 7  86335405.84345  21084000.613    21083990.140          48.000
        38.000  
 114166982.649 7  88796411.047 6  21364773.789    21364765.793          46.000
        43.000    21364773.344
 106309306.512 4  82684981.124 6  19873406.648    19873399.242          35.000
        45.000    19873405.734
 117244326.576 5  91189994.452 5  21948376.328    21948369.039          38.000
        40.000    21948377.410
 127079269.397 6  98839314.014 5  23839731.688    23839724.984          41.000
        36.000    23839730.656
 20  7  1 12 30 15.0000000  0 18G 1G22G 9G 8G16G 7G 3G 4R 6R18R 5R20
                                G17G11R15R19R16R14
 105840923.044 7  82473503.321 8  20140883.044    20140875.674          49.000
        55.000  
 118629606.044 6  92438532.72044  22574449.254    22574438.353          44.000
        31.000  
 116491668.667 6  90772781.458 7  22167653.874    22167647.149          45.000
        50.000  
 124643624.190 6  97124918.868 6  23718910.912    23718905.368          41.000
        45.000  
 131350606.205 4                  24995210.108                          33.000
                
 123410579.145 6  96164072.663 5  23484258.985    23484249.220          42.000
        39.000  
 120342714.388 6  93773406.177 7  22900433.805    22900427.014          43.000
        50.000  
 112656952.219 7  87833325.913 7  21410107.455    21374419.060          47.000
        50.000  
 125470661.74913                  23485448.674                          28.000
                  23485446.822
 123606566.377 5  96138396.311 5  23155674.930    23155667.758          39.000
        38.000    23155674.016
 121379991.042 6  94406601.100 6  22706638.422    22706631.133          43.000
        42.000    22706637.859
 110129098.083 5  85655930.282 7  20594693.695    20594687.578          37.000
        46.000    20594693.016
 125747512.203 5  97985069.967 5  23928964.980    23928957.430          37.000
        38.000  
 110824352.649 7  86356628.05245  21089183.277    21089172.804          48.000
        39.000  
 114154917.190 7  88787026.784 6  21362515.992    21362507.410          46.000
        44.000    21362514.961
 106345775.493 5  82713345.879 6  19880224.469    19880217.180          36.000
        45.000    19880223.320
 117199312.498 5  91154983.518 5  21939951.219    21939941.816          39.000
        39.000    21939949.719
 127105194.706 5  98859478.148 5  23844593.266    23844587.852          40.000
        36.000    23844592.586
 20  7  1 12 30 30.0000000  0 18G 1G22G 9G 8G16G 7G 3G 4R 6R18R 5R20
                                G17G11R15R19R16R14
 105833564.023 7  82467769.016 8  20139482.442    20139475.658          49.000
        55.000  
 118622535.500 6  92433023.20644  22573104.277    22573092.849          45.000
        31.000  
 116489124.689 6  90770799.126 7  22167169.913    22167161.958          45.000
        50.000  
 124683935.180 6  97156330.024 6  23726582.100    23726576.322          42.000
        45.000  
 131347641.936 4                  24994644.912                          33.000
                
 123356822.205 6  96122184.115 5  23474029.492    23474019.845          43.000
        39.000  
 120329635.516 6  93763214.835 7  22897944.531    22897937.858          44.000
        50.000  
 112678726.632 7  87850325.398 7  21414232.448    21378519.655          46.000
        50.000  
 125474113.52013                  23486075.745                          30.000
                  23486073.190
 123670534.710 5  96188149.401 5  23167658.836    23167652.719          38.000
        39.000    23167658.156
 121396515.455 6  94419453.419 6  22709728.375    22709720.613          43.000
        41.000    22709727.930
 110098940.912 5  85632474.719 7  20589055.328    20589049.328          36.000
        47.000    20589053.711
 125731097.500 5  97972279.304 5  23925840.535    23925834.097          36.000
        39.000  
 110851686.510 7  86377927.15445  21094384.723    21094374.425          48.000
        38.000  
 114142978.728 7  88777741.324 6  21360281.352    21360273.707          46.000
        44.000    21360280.906
 106382400.276 5  82741831.829 6  19887071.078    19887063.672          36.000
        45.000    19887071.105
 117154310.763 5  91119982.183 5  21931527.250    21931517.379          39.000
        39.000    21931525.633
 127131250.841 5  98879744.078 4  23849481.555    23849475.086          40.000
        35.000    23849480.641
 20  7  1 12 30 45.0000000  0 18G 1G22G 9G 8G16G 7G 3G 4R 6R18R 5R20
                                G17G11R15R19R16R14
 105826349.772 7  82462147.518 8  20138109.270    20138102.486          49.000
        55.000  
 118615474.304 6  92427520.96744  22571760.707    22571749.454          45.000
        32.000  
 116486662.552 6  90768880.576 7  22166701.390    22166694.489          45.000
        50.000  
 124724211.930 6  97187714.476 6  23734245.608    23734240.533          41.000
        45.000  
 131344663.597 4                  24994078.350                          31.000
                
 123303083.016 6  96080309.401 5  23463803.711    23463793.244          42.000
        38.000  
 120316528.093 6  93753001.277 7  22895450.375    22895443.702          45.000
        50.000  
 112700553.713 7  87867364.770 7  21418368.240    21382632.117          46.000
        50.000  
 125477571.636 3                  23486705.943                          29.000
                  23486704.794
 123734511.275 5  96237908.941 5  23179644.813    23179637.758          39.000
        40.000    23179642.961
 121412983.649 6  94432262.014 6  22712809.625    22712801.863          43.000
        42.000    22712809.063
 110068959.432 5  85609155.816 7  20583447.211    20583442.031          36.000
        46.000    20583446.887
 125714790.757 5  97959572.799 5  23922740.098    23922730.847          38.000
        39.000  
 110879115.480 7  86399300.37145  21099604.535    21099594.296          48.000
        38.000  
 114131164.234 7  88768552.278 6  21358070.945    21358062.363          46.000
        44.000    21358070.383
 106419177.023 5  82770435.925 6  19893945.273    19893938.453          36.000
        45.000    19893945.418
 117109318.586 5  91084988.281 5  21923104.891    21923095.020          40.000
        39.000    21923103.391
 127157434.510 5  98900109.125 4  23854392.688    23854384.457          40.000
        35.000    23854392.832
 20  7  1 12 31  0.0000000  0 18G 1G22G 9G 8G16G 7G 3G 4R 6R18R 5R20
                                G17G11R15R19R16R14
 105819280.317 7  82456638.846 8  20136764.419    20136757.400          49.000
        55.000  
 118608422.413 6  92422025.99544  22570418.988    22570407.560          45.000
        32.000  
 116484281.956 6  90767025.553 7  22166247.952    22166240.407          44.000
        50.000  
 124764454.295 6  97219072.161 6  23741903.631    23741897.501          43.000
        45.000  
 131341671.379 4                  24993508.670                          31.000
                
 123249361.863 5  96038448.757 5  23453579.883    23453570.060          40.000
        38.000  
 120303392.141 6  93742765.474 7  22892950.883    22892944.561          44.000
        50.000  
 112722433.023 6  87884443.714 7  21422513.734    21386757.047          45.000
        50.000  
 125481035.38013                  23487337.422                          27.000
                  23487336.508
 123798495.433 5  96287674.362 6  23191628.914    23191623.266          38.000
        41.000    23191628.234
 121429395.064 6  94445026.476 6  22715879.531    22715871.066          43.000
        41.000    22715878.383
 110039153.782 5  85585973.626 7  20577872.727    20577868.371          36.000
        46.000    20577872.402
 125698591.798 5  97946950.198 5  23919657.340    23919647.914          37.000
        36.000  
 110906639.194 7  86420747.41745  21104842.027    21104832.023          48.000
        38.000  
 114119473.787 7  88759459.703 6  21355883.516    21355875.051          46.000
        44.000    21355882.953
 106456105.230 5  82799157.872 6  19900850.203    19900841.738          36.000
        45.000    19900848.586
 117064336.482 5  91050002.198 5  21914683.875    21914675.762          39.000
        39.000    21914683.313
 127183745.268 5  98920573.028 4  23859328.438    23859318.098          40.000
        34.000    23859328.465
 20  7  1 12 31 15.0000000  0 18G 1G22G 9G 8G16G 7G 3G 4R18R 5R20R 4
                                G17G11R15R19R16R14
 105812355.764 7  82451243.094 8  20135446.778    20135439.408          49.000
        55.000  
 118601380.111 6  92416538.48144  22569079.011    22569067.115          45.000
        32.000  
 116481982.680 7  90765233.895 7  22165811.601    22165802.942          46.000
        50.000  
 124804661.704 6  97250402.582 6  23749554.459    23749549.208          41.000
        45.000  
 131338665.200 4                  24992936.272                          34.000
                
 123195658.971 5  95996602.365 5  23443360.266    23443351.087          39.000
        38.000  
 120290227.799 6  93732507.555 7  22890445.695    22890439.198          44.000
        50.000  
 112707731.364 6  87824171.401 7  21447569.328    21447560.145          45.000
        50.000  
 123862486.575 5  96337445.228 5  23203617.398    23203610.344          38.000
        40.000    23203617.074
 121445749.755 6  94457746.752 6  22718939.063    22718932.125          43.000
        42.000    22718939.207
 110009524.076 5  85562928.332 7  20572332.617    20572326.500          36.000
        47.000    20572331.586
 130035273.95713                  24283167.500                          30.000
                  24283167.879
 125682499.978 5  97934411.123 5  23916594.559    23916585.250          38.000
        37.000  
 110934257.237 7  86442267.95645  21110097.590    21110087.175          48.000
        37.000  
 114107907.876 7  88750464.014 6  21353718.727    21353712.375          47.000
        45.000    21353718.754
 106493184.056 5  82827996.952 6  19907781.266    19907772.332          36.000
        45.000    19907780.586
 117019364.711 5  91015024.133 5  21906265.617    21906256.801          39.000
        39.000    21906264.586
 127210183.045 5  98941135.673 5  23864288.445    23864279.863          39.000
        36.000    23864287.883
 20  7  1 12 31 30.0000000  0 17G 1G22G 9G 8G16G 7G 3G 4R18R 5R20G17
                                G11R15R19R16R14
 105805577.636 7  82445961.423 8  20134156.880    20134149.803          50.000
        55.000  
 118594349.059 6  92411059.73244  22567740.926    22567728.970          45.000
        32.000  
 116479765.883 6  90763506.511 7  22165388.499    22165381.306          45.000
        50.000  
 124844835.345 6  97281706.702 6  23757199.600    23757194.642          41.000
        45.000  
 131335646.731 4                  24992363.358                          35.000
                
 123141976.090 6  95954771.573 5  23433145.250    23433135.896          41.000
        38.000  
 120277036.532 6  93722228.649 7  22887935.680    22887929.358          44.000
        50.000  
 112729694.539 7  87841285.550 7  21451748.406    21451739.516          46.000
        50.000  
 123926485.641 5  96387222.244 5  23215606.508    23215598.746          38.000
        40.000    23215606.301
 121462048.706 6  94470423.709 6  22721988.688    22721980.691          43.000
        42.000    22721988.363
 109980072.150 5  85540021.286 7  20566825.164    20566819.281          36.000
        47.000    20566824.016
 125666517.376 5  97921957.098 5  23913552.863    23913544.140          38.000
        37.000  
 110961970.807 7  86463862.93045  21115370.535    21115360.648          47.000
        37.000  
 114096468.258 7  88741566.510 6  21351578.203    21351569.855          46.000
        44.000    21351577.879
 106530414.776 5  82856954.169 6  19914741.227    19914732.293          37.000
        45.000    19914739.844
 116974405.114 5  90980055.552 5  21897847.359    21897839.480          38.000
        38.000    21897846.211
 127236749.169 5  98961798.209 5  23869273.063    23869264.715          40.000
        36.000    23869272.738
 20  7  1 12 31 45.0000000  0 18G 1G22G 9G 8G16G 7G 3G 4R18R 5R20R 4
                                G17G11R15R19R16R14
 105798944.308 7  82440792.598 8  20132894.911    20132887.072          49.000
        55.000  
 118587327.586 6  92405588.44044  22566404.465    22566392.745          44.000
        31.000  
 116477629.558 6  90761841.826 7  22164982.796    22164974.841          45.000
        50.000  
 124884973.196 6  97312982.971 6  23764836.834    23764831.583          42.000
        45.000  
 131332614.497 4                  24991785.576                          32.000
                
 123088311.818 6  95912955.269 5  23422933.313    23422923.197          41.000
        39.000  
 120263816.763 6  93711927.541 7  22885420.219    22885412.315          44.000
        50.000  
 112751709.375 7  87858439.964 7  21455938.430    21455930.066          46.000
        50.000  
 123990490.484 5  96437003.717 5  23227597.094    23227589.332          37.000
        39.000    23227596.414
 121478289.925 6  94483055.736 6  22725026.609    22725018.379          43.000
        41.000    22725026.285
 109950796.160 5  85517251.104 7  20561350.156    20561344.742          36.000
        47.000    20561349.477
 130066846.29813                  24289053.484                          29.000
                
 125650642.120 4  97909586.781 5  23910529.480    23910523.160          33.000
        38.000  
 110989777.882 7  86485530.77045  21120662.863    21120652.624          47.000
        37.000  
 114085153.437 7  88732766.101 6  21349461.148    21349452.801          47.000
        45.000    21349460.586
 106567794.816 5  82886027.526 6  19921728.961    19921720.730          36.000
        45.000    19921727.578
 116929456.480 5  90945095.521 5  21889432.289    21889424.176          39.000
        38.000    21889431.965
 127263441.736 5  98982559.089 5  23874278.539    23874274.418          37.000
        39.000    23874277.859
 20  7  1 12 32  0.0000000  0 18G 1G22G 9G 8G16G 7G 3G 4R18R 5R20R 4
                                G17G11R15R19R16R14
 105792456.797 7  82435737.382 8  20131660.114    20131652.861          49.000
        55.000  
 118580316.724 6  92400125.43044  22565069.894    22565058.467          45.000
        32.000  
 116475574.324 6  90760240.351 7  22164591.358    22164583.931          45.000
        50.000  
 124925075.937 6  97344231.848 6  23772469.194    23772462.185          42.000
        45.000  
 131329569.759 3                  24991204.850                          30.000
                
 123034667.388 6  95871154.401 5  23412725.281    23412715.400          41.000
        39.000  
 120250569.437 6  93701604.960 7  22882898.586    22882892.792          44.000
        50.000  
 112773776.389 7  87875635.045 7  21460137.703    21460128.813          46.000
        50.000  
 124054501.374 5  96486789.957 5  23239588.383    23239580.270          37.000
        39.000    23239587.586
 121494474.198 6  94495643.510 6  22728053.430    22728046.023          42.000
        41.000    22728053.691
 109921697.535 5  85494618.817 7  20555906.852    20555903.316          36.000
        47.000    20555907.113
 130082488.496 3                  24291973.695                          30.000
                
 125634874.977 4  97897300.685 5  23907530.668    23907523.410          35.000
        38.000  
 111017678.857 7  86507271.77945  21125972.660    21125961.542          48.000
        37.000  
 114073964.660 7  88724063.709 6  21347366.953    21347358.723          46.000
        45.000    21347366.039
 106605324.522 5  82915217.258 6  19928744.102    19928736.813          36.000
        45.000    19928743.070
 116884520.131 5  90910144.997 5  21881020.555    21881012.324          38.000
        38.000    21881020.582
 127290261.509 4  99003418.945 5  23879310.625    23879305.680          35.000
        38.000    23879309.242
 20  7  1 12 32 15.0000000  0 17G 1G22G 9G 8G16G 7G 3G 4R18R 5R20G17
                                G11R15R19R16R14
 105786114.934 7  82430795.674 8  20130453.467    20130446.389          49.000
        55.000  
 118573316.398 6  92394670.62744  22563737.644    22563726.920          44.000
        31.000  
 116473599.747 6  90758701.723 7  22164215.444    22164207.724          44.000
        50.000  
 124965142.920 6  97375452.859 6  23780093.733    23780086.548          42.000
        45.000  
 131326512.456 3                  24990623.600                          30.000
                
 122981042.860 6  95829369.066 5  23402520.235    23402510.763          41.000
        40.000  
 120237294.447 6  93691260.826 7  22880372.367    22880365.811          44.000
        50.000  
 112795894.983 7  87892870.329 8  21464346.938    21464337.461          47.000
        55.000  
 124118517.545 5  96536580.248 5  23251581.578    23251573.230          38.000
        40.000    23251579.609
 121510600.983 6  94508186.561 6  22731069.984    22731062.578          42.000
        41.000    22731069.188
 109892776.193 5  85472124.460 7  20550500.203    20550494.555          36.000
        46.000    20550500.113
 125619215.219 5  97885098.274 5  23904551.121    23904543.922          36.000
        39.000  
 111045673.341 7  86529085.64445  21131299.926    21131289.101          48.000
        37.000  
 114062901.975 7  88715459.402 6  21345296.055    21345288.883          46.000
        45.000    21345295.141
 106643003.259 5  82944522.903 6  19935788.008    19935780.012          36.000
        45.000    19935786.859
 116839595.974 5  90875204.008 5  21872611.664    21872603.199          38.000
        39.000    21872610.516
 127317207.973 4  99024377.421 5  23884366.164    23884357.699          33.000
        36.000    23884364.781
 20  7  1 12 32 30.0000000  0 17G 1G22G 9G 8G16G 7G 3G 4R18R 5R20G17
                                G11R15R19R16R14
 105779919.026 7  82425967.689 8  20129274.428    20129266.998          49.000
        55.000  
 118566327.023 6  92389224.33944  22562408.683    22562397.022          45.000
        31.000  
 116471705.760 6  90757225.870 7  22163855.390    22163847.962          45.000
        50.000  
 125005174.132 6  97406645.993 6  23787710.631    23787704.091          41.000
        45.000  
 131323442.840 3                  24990039.475                          29.000
                
 122927438.577 6  95787599.522 6  23392319.406    23392309.935          42.000
        41.000  
 120223992.071 6  93680895.356 7  22877841.383    22877834.944          44.000
        50.000  
 112818065.002 7  87910145.655 7  21468564.836    21468556.531          46.000
        50.000  
 124182538.679 5  96586374.407 5  23263574.000    23263566.121          38.000
        40.000    23263572.734
 121526670.325 6  94520684.966 6  22734075.766    22734068.359          43.000
        41.000    22734074.734
 109864032.444 5  85449768.168 7  20545125.016    20545119.484          37.000
        47.000    20545123.750
 125603663.016 5  97872979.677 5  23901591.824    23901583.746          36.000
        38.000  
 111073761.216 7  86550972.29245  21136644.504    21136633.855          48.000
        37.000  
 114051965.812 7  88706953.483 6  21343249.820    21343242.059          46.000
        45.000    21343249.023
 106680830.219 4  82973943.948 6  19942860.141    19942851.441          35.000
        44.000    19942858.641
 116794685.079 5  90840273.302 5  21864204.445    21864195.629          39.000
        39.000    21864203.531
 127344281.330 4  99045434.449 5  23889444.391    23889435.809          34.000
        36.000    23889443.242
 20  7  1 12 32 45.0000000  0 17G 1G22G 9G 8G16G 7G 3G 4R18R 5R20G17
                                G11R15R19R16R14
 105773869.119 7  82421253.477 8  20128122.701    20128115.682          49.000
        55.000  
 118559348.744 6  92383786.71944  22561080.801    22561068.495          45.000
        31.000  
 116469891.977 6  90755812.535 7  22163509.015    22163502.642          43.000
        50.000  
 125045169.270 6  97437811.031 6  23795321.912    23795315.197          42.000
        45.000  
 131320360.857 3                  24989454.623                          30.000
                
 122873854.988 6  95745846.083 6  23382123.578    23382113.755          44.000
        41.000  
 120210662.381 6  93670508.556 7  22875306.203    22875297.655          45.000
        50.000  
 112840285.974 7  87927460.711 7  21472794.274    21472784.613          46.000
        50.000  
 124246563.892 5  96636171.801 6  23275567.523    23275561.523          38.000
        41.000    23275566.141
 121542681.716 6  94533138.244 6  22737071.844    22737063.379          44.000
        41.000    22737071.398
 109835466.522 5  85427550.248 7  20539784.047    20539777.695          36.000
        47.000    20539781.375
 125588218.511 5  97860945.024 5  23898652.160    23898644.609          36.000
        38.000  
 111101941.963 7  86572931.31745  21142007.098    21141996.566          48.000
        37.000  
 114041156.418 7  88698546.194 6  21341227.852    21341219.738          47.000
        45.000    21341227.879
 106718805.427 5  83003480.203 6  19949959.125    19949949.957          36.000
        45.000    19949957.625
 116749787.617 5  90805353.061 5  21855799.398    21855788.824          38.000
        39.000    21855797.430
 127371481.254 5  99066589.954 5  23894547.875    23894538.707          37.000
        37.000    23894546.961
 20  7  1 12 33  0.0000000  0 18G 1G22G 9G 8G16G 7G 3G 4R 6R18R 5R20
                                G17G11R15R19R16R14
 105767964.511 7  82416652.483 8  20126999.350    20126992.097          49.000
        55.000  
 118552380.722 6  92378357.09144  22559755.011    22559742.588          45.000
        32.000  
 116468157.453 6  90754460.942 7  22163179.562    22163172.544          45.000
        50.000  
 125085127.064 6  97468946.970 6  23802926.014    23802919.884          43.000
        45.000  
 131317266.013 4                  24988864.998                          31.000
                
 122820291.647 6  95704108.409 6  23371931.344    23371921.930          45.000
        42.000  
 120197304.653 6  93660099.941 7  22872762.765    22872756.210          45.000
        50.000  
 112862556.789 6  87944814.582 7  21477031.587    21477022.981          45.000
        50.000  
 125472133.57313                  23513417.009                          30.000
                  23513415.274
 124310592.137 5  96685971.464 5  23287561.891    23287554.953          38.000
        40.000    23287560.625
 121558634.377 6  94545545.835 6  22740056.219    22740048.695          43.000
        41.000    22740055.895
 109807077.857 5  85405470.229 7  20534474.625    20534468.977          36.000
        47.000    20534473.477
 125572880.838 5  97848993.535 5  23895735.402    23895726.211          39.000
        38.000  
 111130214.616 7  86594961.94145  21147387.301    21147377.003          48.000
        37.000  
 114030473.578 7  88690237.296 6  21339228.500    21339220.621          47.000
        45.000    21339228.762
 106756926.989 5  83033130.289 6  19957085.406    19957077.293          36.000
        44.000    19957084.492
 116704903.116 5  90770442.899 5  21847396.953    21847388.840          38.000
        40.000    21847395.805
 127398806.800 5  99087843.108 5  23899672.719    23899663.668          38.000
        37.000    23899672.273
 20  7  1 12 33 15.0000000  0 18G 1G22G 9G 8G16G 7G 3G 4R 6R18R 5R20
                                G17G11R15R19R16R14
 105762206.527 7  82412165.731 8  20125903.498    20125896.714          49.000
        55.000  
 118545424.515 6  92372936.66444  22558431.011    22558419.174          45.000
        31.000  
 116466503.062 6  90753171.796 7  22162865.468    22162857.161          45.000
        50.000  
 125125048.332 6  97500054.457 6  23810521.826    23810515.579          41.000
        45.000  
 131314159.925 4                  24988273.990                          31.000
                
 122766749.883 6  95662387.549 6  23361742.836    23361732.250          45.000
        42.000  
 120183920.223 6  93649670.522 7  22870216.445    22870209.010          45.000
        50.000  
 112884878.230 7  87962207.888 7  21481279.321    21481270.304          46.000
        50.000  
 125475616.08413                  23514067.056                          29.000
                  23514068.841
 124374624.056 5  96735774.042 6  23299557.500    23299550.445          40.000
        41.000    23299557.055
 121574529.154 6  94557908.432 6  22743031.180    22743022.715          44.000
        42.000    22743030.973
 109778867.915 5  85383529.127 7  20529199.523    20529193.523          36.000
        46.000    20529198.141
 125557650.959 5  97837126.097 5  23892837.051    23892827.918          39.000
        39.000  
 111158580.123 7  86617064.92845  21152784.895    21152774.421          48.000
        37.000  
 114019918.633 7  88682027.894 6  21337252.477    21337245.656          46.000
        45.000    21337252.973
 106795195.788 5  83062894.904 6  19964238.750    19964230.402          36.000
        44.000    19964237.953
 116660033.373 5  90735544.193 5  21838996.977    21838988.160          39.000
        39.000    21838995.828
 127426259.021 5  99109194.782 5  23904822.328    23904815.391          39.000
        37.000    23904821.883
 20  7  1 12 33 30.0000000  0 18G 1G22G 9G 8G16G 7G 3G 4R 6R18R 5R20
                                G17G11R15R19R16R14
 105756595.423 7  82407793.438 8  20124835.389    20124829.073          49.000
        55.000  
 118538480.423 6  92367525.67344  22557109.910    22557097.604          45.000
        32.000  
 116464928.766 6  90751945.060 7  22162565.819    22162558.509          45.000
        50.000  
 125164933.149 6  97531133.507 6  23818111.561    23818105.548          42.000
        45.000  
 131311042.833 4                  24987681.225                          32.000
                
 122713230.227 6  95620683.936 6  23351557.274    23351547.684          44.000
        41.000  
 120170509.365 6  93639220.507 7  22867663.305    22867657.452          44.000
        50.000  
 112907250.131 7  87979640.533 7  21485537.181    21485528.339          46.000
        50.000  
 125479101.997 3                  23514721.876                          30.000
                  23514722.138
 124438659.107 5  96785579.057 6  23311553.078    23311547.898          40.000
        41.000    23311553.809
 121590366.247 6  94570226.143 6  22745993.000    22745985.121          44.000
        41.000    22745992.320
 109750836.835 5  85361727.169 7  20523956.289    20523950.992          36.000
        47.000    20523955.965
 125542529.064 5  97825342.821 5  23889958.512    23889950.609          38.000
        39.000  
 111187038.276 7  86639240.10345  21158200.590    21158189.882          48.000
        37.000  
 114009492.116 7  88673918.378 6  21335301.352    21335294.648          46.000
        45.000    21335301.262
 106833611.502 5  83092773.789 6  19971419.648    19971412.945          36.000
        45.000    19971419.793
 116615178.877 5  90700657.377 5  21830599.961    21830591.145          39.000
        39.000    21830598.695
 127453838.086 5  99130645.187 5  23909995.813    23909990.984          39.000
        37.000    23909995.488
 20  7  1 12 33 45.0000000  0 18G 1G22G 9G 8G16G 7G 3G 4R 6R18R 5R20
                                G17G11R15R19R16R14
 105751131.460 7  82403535.799 8  20123796.201    20123788.890          50.000
        55.000  
 118531548.599 6  92362124.24744  22555790.441    22555778.487          45.000
        31.000  
 116463434.403 6  90750780.599 7  22162281.429    22162273.356          43.000
        50.000  
 125204781.371 6  97562184.046 6  23825695.108    23825688.626          42.000
        45.000  
 131307914.884 4                  24987085.764                          31.000
                
 122659733.051 6  95578997.842 6  23341377.149    23341367.618          45.000
        42.000  
 120157072.301 6  93628750.057 7  22865106.765    22865099.917          44.000
        50.000  
 112929672.250 6  87997112.305 8  21489803.134    21489794.879          45.000
        55.000  
 125482590.882 4                  23515376.165                          31.000
                  23515376.661
 124502697.137 6  96835386.376 5  23323551.156    23323542.926          41.000
        40.000    23323550.832
 121606145.114 6  94582498.591 6  22748943.641    22748936.703          42.000
        41.000    22748942.727
 109722985.143 5  85340064.693 7  20518747.313    20518742.719          37.000
        47.000    20518747.223
 125527515.000 4  97813643.526 5  23887099.239    23887092.976          34.000
        38.000  
 111215588.781 7  86661487.23645  21163633.324    21163622.265          47.000
        37.000  
 113999194.259 7  88665908.943 6  21333373.758    21333367.406          46.000
        45.000    21333373.785
 106872173.574 5  83122766.497 6  19978629.742    19978620.105          36.000
        44.000    19978627.773
 116570340.287 5  90665782.930 5  21822205.938    21822197.238          40.000
        39.000    21822205.492
 127481543.756 5  99152194.023 5  23915195.578    23915188.055          40.000
        36.000    23915193.961
 20  7  1 12 34  0.0000000  0 18G 1G22G 9G 8G16G 7G 3G 4R 6R18R 5R20
                                G17G11R15R19R16R14
 105745814.271 7  82399392.547 8  20122784.037    20122776.901          49.000
        55.000  
 118524628.974 6  92356732.31844  22554473.324    22554461.838          45.000
        32.000  
 116462019.362 6  90749677.963 7  22162011.499    22162004.833          42.000
        50.000  
 125244592.162 6  97593205.435 6  23833271.436    23833264.017          42.000
        45.000  
 131304775.987 4                  24986489.240                          32.000
                
 122606258.425 6  95537329.303 6  23331201.742    23331191.567          45.000
        42.000  
 120143608.817 6  93618259.014 7  22862544.875    22862538.260          44.000
        50.000  
 112952143.866 6  88014622.654 8  21494079.313    21494070.765          45.000
        55.000  
 125486082.129 3                  23516029.884                          29.000
                  23516030.848
 124566736.936 6  96885195.067 6  23335546.422    23335539.953          41.000
        41.000    23335546.918
 121621865.409 6  94594725.478 6  22751884.758    22751877.469          43.000
        41.000    22751883.844
 109695312.631 5  85318541.648 7  20513573.477    20513567.828          36.000
        47.000    20513572.328
 125512608.372 4  97802027.997 5  23884263.505    23884255.894          35.000
        39.000  
 111244231.043 7  86683805.88445  21169083.723    21169073.133          48.000
        37.000  
 113989025.281 7  88657999.729 7  21331471.375    21331463.969          47.000
        46.000    21331470.109
 106910881.163 5  83152872.417 6  19985866.531    19985857.715          36.000
        45.000    19985864.797
 116525517.701 5  90630920.908 5  21813815.281    21813806.230          39.000
        39.000    21813813.898
 127509375.755 5  99173841.068 4  23920415.539    23920407.543          40.000
        35.000    23920415.094
 20  7  1 12 34 15.0000000  0 18G 1G22G 9G 8G16G 7G 3G 4R 6R18R 5R20
                                G17G11R15R19R16R14
 105740644.365 7  82395364.046 8  20121799.631    20121793.433          49.000
        55.000  
 118517722.106 6  92351350.33244  22553159.605    22553147.592          45.000
        31.000  
 116460683.698 6  90748637.186 7  22161757.749    22161750.204          44.000
        50.000  
 125284365.728 6  97624197.809 6  23840839.694    23840833.740          41.000
        45.000  
 131301626.70813                  24985887.436                          27.000
                
 122552806.983 7  95495678.827 6  23321030.250    23321020.016          46.000
        42.000  
 120130119.339 6  93607747.717 7  22859977.867    22859970.901          44.000
        50.000  
 112974664.913 7  88032171.522 8  21498365.188    21498356.464          46.000
        55.000  
 125489576.00913                  23516684.657                          28.000
                  23516684.919
 124630778.500 5  96935005.113 6  23347544.781    23347537.020          40.000
        41.000    23347544.102
 121637527.386 6  94606907.039 6  22754814.367    22754808.016          42.000
        41.000    22754813.336
 109667819.955 5  85297158.458 7  20508432.633    20508426.164          36.000
        47.000    20508431.016
 125497809.405 5  97790496.311 5  23881446.958    23881440.695          36.000
        38.000  
 111272965.028 7  86706195.98745  21174552.012    21174541.363          48.000
        37.000  
 113978985.727 7  88650191.194 6  21329593.359    21329585.012          47.000
        44.000    21329592.445
 106949734.039 5  83183091.315 6  19993129.711    19993120.074          37.000
        45.000    19993126.922
 116480711.974 6  90596072.008 5  21805427.711    21805418.543          41.000
        39.000    21805427.266
 127537334.050 6  99195586.394 5  23925660.406    23925653.586          41.000
        37.000    23925661.137
 20  7  1 12 34 30.0000000  0 17G 1G22G 9G 8G 7G 3G 4R 6R18R 5R20G17
                                G11R15R19R16R14
 105735625.682 7  82391453.386 8  20120845.162    20120838.964          49.000
        55.000  
 118510832.022 6  92345981.42544  22551848.544    22551836.237          45.000
        31.000  
 116459431.100 6  90747661.128 7  22161519.795    22161512.016          43.000
        50.000  
 125324105.420 6  97655163.785 6  23848401.834    23848395.646          41.000
        45.000  
 122499382.817 6  95454049.607 6  23310863.492    23310853.786          45.000
        42.000  
 120116607.842 6  93597219.267 7  22857407.039    22857400.073          44.000
        50.000  
 112997238.948 7  88049761.671 8  21502661.290    21502652.800          47.000
        55.000  
 125493075.572 4                  23517341.556                          31.000
                  23517343.341
 124694825.276 5  96984819.260 5  23359543.836    23359534.551          40.000
        40.000    23359541.984
 121653134.643 6  94619046.021 6  22757732.992    22757726.758          42.000
        41.000    22757733.957
 109640511.041 5  85275918.165 7  20503326.359    20503319.656          36.000
        46.000    20503324.742
 125483121.850 5  97779051.408 5  23878654.169    23878645.387          39.000
        38.000  
 111301794.357 7  86728660.39145  21180038.207    21180027.031          47.000
        37.000  
 113969079.870 7  88642486.640 6  21327739.516    21327731.992          47.000
        44.000    21327739.070
 106988735.463 4  83213425.765 6  20000419.680    20000411.332          35.000
        45.000    20000417.945
 116435927.139 5  90561239.365 5  21797045.039    21797034.699          40.000
        40.000    21797043.422
 127565422.330 6  99217432.903 5  23930930.758    23930922.527          41.000
        36.000    23930930.785
 20  7  1 12 34 45.0000000  0 17G 1G22G 9G 8G 7G 3G 4R 6R18R 5R20G17
                                G11R15R19R16R14
 105730749.561 7  82387653.802 8  20119917.279    20119910.554          49.000
        55.000  
 118503950.060 6  92340618.84744  22550538.161    22550527.202          45.000
        31.000  
 116458252.428 6  90746742.680 7  22161295.365    22161287.293          44.000
        50.000  
 125363802.366 5  97686096.444 6  23855956.108    23855950.154          40.000
        45.000  
 122445977.597 6  95412435.161 6  23300700.469    23300691.172          43.000
        42.000  
 120103065.660 6  93586666.924 7  22854829.414    22854823.034          43.000
        50.000  
 113019856.763 7  88067385.929 7  21506964.845    21506955.652          46.000
        50.000  
 125496571.65913                  23517996.016                          28.000
                  23517996.864
 124758867.785 5  97034630.036 5  23371540.711    23371531.309          40.000
        39.000    23371539.328
 121668677.922 6  94631135.231 5  22760641.109    22760633.820          42.000
        40.000    22760641.137
 109613377.390 5  85254814.200 7  20498251.813    20498245.695          37.000
        47.000    20498250.195
 125468536.748 5  97767686.406 5  23875878.185    23875869.871          38.000
        39.000  
 111330709.974 7  86751192.03845  21185541.027    21185529.149          48.000
        37.000  
 113959298.968 7  88634879.270 6  21325907.945    21325900.066          46.000
        44.000    21325907.855
 107027876.129 5  83243868.433 6  20007736.672    20007727.621          36.000
        44.000    20007734.703
 116391154.922 5  90526416.511 5  21788663.055    21788654.121          40.000
        40.000    21788661.320
 127593631.605 5  99239373.478 5  23936220.969    23936214.500          39.000
        37.000    23936220.762
 20  7  1 12 35  0.0000000  0 18G 1G22G 9G 8G16G 7G 3G 4R 6R18R 5R20
                                G17G11R15R19R16R14
 105726017.274 7  82383966.306 8  20119016.928    20119009.675          49.000
        55.000  
 118497077.694 6  92335263.73644  22549229.856    22549218.897          43.000
        31.000  
 116457148.735 6  90745882.655 7  22161084.928    22161078.144          44.000
        50.000  
 125403457.574 5  97716996.599 6  23863501.912    23863495.314          40.000
        45.000  
 131292211.99014                  24984077.858                          31.000
                
 122392592.751 6  95370836.594 6  23290542.133    23290532.309          43.000
        41.000  
 120089494.199 6  93576091.750 7  22852247.351    22852240.561          43.000
        50.000  
 113042519.264 7  88085045.012 7  21511277.431    21511268.589          46.000
        50.000  
 125500065.277 3                  23518654.345                          30.000
                  23518652.376
 124822906.686 5  97084438.061 5  23383536.742    23383529.219          40.000
        39.000    23383536.770
 121684158.293 6  94643175.524 6  22763537.992    22763529.527          42.000
        41.000    22763538.371
 109586420.248 5  85233847.529 7  20493210.617    20493204.031          36.000
        47.000    20493209.000
 125454055.610 5  97756402.403 5  23873123.161    23873114.906          39.000
        39.000  
 111359712.680 7  86773791.54745  21191059.348    21191048.934          48.000
        37.000  
 113949644.620 7  88627370.340 6  21324101.070    21324093.191          46.000
        43.000    21324101.332
 107067156.443 5  83274419.829 6  20015080.195    20015070.559          36.000
        44.000    20015078.227
 116346397.002 5  90491604.812 5  21780284.148    21780274.160          40.000
        39.000    21780282.766
 127621963.162 5  99261409.099 5  23941536.938    23941529.176          39.000
        39.000    23941536.965
